[
    {
        "stop_id": 43,
        "stop_name": "Bonn Propsthof Nord",
        "stop_lat": 50.739096,
        "stop_lon": 7.073507,
        "routes": [
            {
                "route_id": 600633,
                "shape_id": 3124,
                "start_stop_name": "Bonn Gerhart-Hauptmann-Str.",
                "end_stop_name": "Bonn Endenich Nord Bf",
                "agency_name": "SWB Stadtwerke Bonn Verkehrs GmbH"
            }
        ]
    },
    {
        "stop_id": 734,
        "stop_name": "Br\u00fchl Nord",
        "stop_lat": 50.834277,
        "stop_lon": 6.901641,
        "routes": [
            {
                "route_id": 2400703,
                "shape_id": 3724,
                "start_stop_name": "Br\u00fchl Mitte",
                "end_stop_name": "Br\u00fchl Nord",
                "agency_name": "StWB Stadtwerke Br\u00fchl"
            }
        ]
    },
    {
        "stop_id": 735,
        "stop_name": "Br\u00fchl Mitte",
        "stop_lat": 50.828921,
        "stop_lon": 6.899026,
        "routes": [
            {
                "route_id": 2400703,
                "shape_id": 3724,
                "start_stop_name": "Br\u00fchl Mitte",
                "end_stop_name": "Br\u00fchl Nord",
                "agency_name": "StWB Stadtwerke Br\u00fchl"
            }
        ]
    },
    {
        "stop_id": 1015,
        "stop_name": "Rheinbach Monte Mare",
        "stop_lat": 50.620126,
        "stop_lon": 6.933811,
        "routes": [
            {
                "route_id": 1200741,
                "shape_id": 3121,
                "start_stop_name": "Rheinbach Bf",
                "end_stop_name": "Rheinbach Wilhelmsplatz",
                "agency_name": "RVK Regionalverkehr K\u00f6ln GmbH NL Meckenheim"
            }
        ]
    },
    {
        "stop_id": 1110,
        "stop_name": "Bonn Wilhelmsplatz",
        "stop_lat": 50.740145,
        "stop_lon": 7.098919,
        "routes": [
            {
                "route_id": 600633,
                "shape_id": 3124,
                "start_stop_name": "Bonn Gerhart-Hauptmann-Str.",
                "end_stop_name": "Bonn Endenich Nord Bf",
                "agency_name": "SWB Stadtwerke Bonn Verkehrs GmbH"
            }
        ]
    },
    {
        "stop_id": 1115,
        "stop_name": "Bonn Bertha-von-Suttner-Pl./Beethovenhaus",
        "stop_lat": 50.737468,
        "stop_lon": 7.102483,
        "routes": [
            {
                "route_id": 600633,
                "shape_id": 3124,
                "start_stop_name": "Bonn Gerhart-Hauptmann-Str.",
                "end_stop_name": "Bonn Endenich Nord Bf",
                "agency_name": "SWB Stadtwerke Bonn Verkehrs GmbH"
            }
        ]
    },
    {
        "stop_id": 1162,
        "stop_name": "Bonn Rosental",
        "stop_lat": 50.741879,
        "stop_lon": 7.096098,
        "routes": [
            {
                "route_id": 600633,
                "shape_id": 3124,
                "start_stop_name": "Bonn Gerhart-Hauptmann-Str.",
                "end_stop_name": "Bonn Endenich Nord Bf",
                "agency_name": "SWB Stadtwerke Bonn Verkehrs GmbH"
            }
        ]
    },
    {
        "stop_id": 1181,
        "stop_name": "Bonn Am Nordpark",
        "stop_lat": 50.745455,
        "stop_lon": 7.085753,
        "routes": [
            {
                "route_id": 600633,
                "shape_id": 3124,
                "start_stop_name": "Bonn Gerhart-Hauptmann-Str.",
                "end_stop_name": "Bonn Endenich Nord Bf",
                "agency_name": "SWB Stadtwerke Bonn Verkehrs GmbH"
            }
        ]
    },
    {
        "stop_id": 1182,
        "stop_name": "Bonn Chlodwigplatz",
        "stop_lat": 50.743293,
        "stop_lon": 7.091044,
        "routes": [
            {
                "route_id": 600633,
                "shape_id": 3124,
                "start_stop_name": "Bonn Gerhart-Hauptmann-Str.",
                "end_stop_name": "Bonn Endenich Nord Bf",
                "agency_name": "SWB Stadtwerke Bonn Verkehrs GmbH"
            }
        ]
    },
    {
        "stop_id": 1184,
        "stop_name": "Bonn Gerhardsplatz",
        "stop_lat": 50.744161,
        "stop_lon": 7.080835,
        "routes": [
            {
                "route_id": 600633,
                "shape_id": 3124,
                "start_stop_name": "Bonn Gerhart-Hauptmann-Str.",
                "end_stop_name": "Bonn Endenich Nord Bf",
                "agency_name": "SWB Stadtwerke Bonn Verkehrs GmbH"
            }
        ]
    },
    {
        "stop_id": 1190,
        "stop_name": "Bonn Zeisigweg",
        "stop_lat": 50.74272,
        "stop_lon": 7.074327,
        "routes": [
            {
                "route_id": 600633,
                "shape_id": 3124,
                "start_stop_name": "Bonn Gerhart-Hauptmann-Str.",
                "end_stop_name": "Bonn Endenich Nord Bf",
                "agency_name": "SWB Stadtwerke Bonn Verkehrs GmbH"
            }
        ]
    },
    {
        "stop_id": 1191,
        "stop_name": "Bonn Heinrich-B\u00f6ll-Ring",
        "stop_lat": 50.740487,
        "stop_lon": 7.075749,
        "routes": [
            {
                "route_id": 600633,
                "shape_id": 3124,
                "start_stop_name": "Bonn Gerhart-Hauptmann-Str.",
                "end_stop_name": "Bonn Endenich Nord Bf",
                "agency_name": "SWB Stadtwerke Bonn Verkehrs GmbH"
            }
        ]
    },
    {
        "stop_id": 1200,
        "stop_name": "Bonn Verweyenstr.",
        "stop_lat": 50.733732,
        "stop_lon": 7.064432,
        "routes": [
            {
                "route_id": 600633,
                "shape_id": 3157,
                "start_stop_name": "Bonn Beuel Bf",
                "end_stop_name": "Bonn Beuel Hallenbad",
                "agency_name": "SWB Stadtwerke Bonn Verkehrs GmbH"
            }
        ]
    },
    {
        "stop_id": 1225,
        "stop_name": "Lindlar Bergisches Freilichtmuseum",
        "stop_lat": 51.01157,
        "stop_lon": 7.355664,
        "routes": [
            {
                "route_id": 1100398,
                "shape_id": 2459,
                "start_stop_name": "Lindlar Vo\u00dfbrucher Str.",
                "end_stop_name": "Lindlar Schulzentrum",
                "agency_name": "OVAG Oberbergische Verkehrsgesellschaft mbH"
            }
        ]
    },
    {
        "stop_id": 1289,
        "stop_name": "Leverkusen Rathaus-Galerie",
        "stop_lat": 51.033744,
        "stop_lon": 6.988695,
        "routes": [
            {
                "route_id": 300020,
                "shape_id": 1,
                "start_stop_name": "Leverkusen Forellental",
                "end_stop_name": "Leverkusen Sch\u00f6ne Aussicht",
                "agency_name": "wupsi wupsi GmbH"
            }
        ]
    },
    {
        "stop_id": 1495,
        "stop_name": "Br\u00fchl Wesselinger Str.",
        "stop_lat": 50.83164,
        "stop_lon": 6.924983,
        "routes": [
            {
                "route_id": 2400703,
                "shape_id": 3724,
                "start_stop_name": "Br\u00fchl Mitte",
                "end_stop_name": "Br\u00fchl Nord",
                "agency_name": "StWB Stadtwerke Br\u00fchl"
            }
        ]
    },
    {
        "stop_id": 1500,
        "stop_name": "Bonn Konrad-Adenauer-Platz",
        "stop_lat": 50.739231,
        "stop_lon": 7.117442,
        "routes": [
            {
                "route_id": 600633,
                "shape_id": 3137,
                "start_stop_name": "Bonn Konrad-Adenauer-Platz",
                "end_stop_name": "Bonn Beuel Hallenbad",
                "agency_name": "SWB Stadtwerke Bonn Verkehrs GmbH"
            }
        ]
    },
    {
        "stop_id": 1504,
        "stop_name": "Bonn Beuel Bf",
        "stop_lat": 50.738477,
        "stop_lon": 7.127652,
        "routes": [
            {
                "route_id": 600633,
                "shape_id": 3124,
                "start_stop_name": "Bonn Gerhart-Hauptmann-Str.",
                "end_stop_name": "Bonn Endenich Nord Bf",
                "agency_name": "SWB Stadtwerke Bonn Verkehrs GmbH"
            }
        ]
    },
    {
        "stop_id": 1506,
        "stop_name": "Bonn Beuel Krankenhaus",
        "stop_lat": 50.736636,
        "stop_lon": 7.117181,
        "routes": [
            {
                "route_id": 600633,
                "shape_id": 3124,
                "start_stop_name": "Bonn Gerhart-Hauptmann-Str.",
                "end_stop_name": "Bonn Endenich Nord Bf",
                "agency_name": "SWB Stadtwerke Bonn Verkehrs GmbH"
            }
        ]
    },
    {
        "stop_id": 1507,
        "stop_name": "Bonn Goetheallee",
        "stop_lat": 50.737124,
        "stop_lon": 7.12065,
        "routes": [
            {
                "route_id": 600633,
                "shape_id": 3124,
                "start_stop_name": "Bonn Gerhart-Hauptmann-Str.",
                "end_stop_name": "Bonn Endenich Nord Bf",
                "agency_name": "SWB Stadtwerke Bonn Verkehrs GmbH"
            }
        ]
    },
    {
        "stop_id": 1542,
        "stop_name": "Bonn Maarstr.",
        "stop_lat": 50.737018,
        "stop_lon": 7.139913,
        "routes": [
            {
                "route_id": 600633,
                "shape_id": 3124,
                "start_stop_name": "Bonn Gerhart-Hauptmann-Str.",
                "end_stop_name": "Bonn Endenich Nord Bf",
                "agency_name": "SWB Stadtwerke Bonn Verkehrs GmbH"
            }
        ]
    },
    {
        "stop_id": 1580,
        "stop_name": "Bonn Broichstr.",
        "stop_lat": 50.73497,
        "stop_lon": 7.142498,
        "routes": [
            {
                "route_id": 600633,
                "shape_id": 3124,
                "start_stop_name": "Bonn Gerhart-Hauptmann-Str.",
                "end_stop_name": "Bonn Endenich Nord Bf",
                "agency_name": "SWB Stadtwerke Bonn Verkehrs GmbH"
            }
        ]
    },
    {
        "stop_id": 1581,
        "stop_name": "Bonn Forstweg",
        "stop_lat": 50.733303,
        "stop_lon": 7.14563,
        "routes": [
            {
                "route_id": 600633,
                "shape_id": 3124,
                "start_stop_name": "Bonn Gerhart-Hauptmann-Str.",
                "end_stop_name": "Bonn Endenich Nord Bf",
                "agency_name": "SWB Stadtwerke Bonn Verkehrs GmbH"
            }
        ]
    },
    {
        "stop_id": 1582,
        "stop_name": "Bonn K\u00fcdinghoven Kirche",
        "stop_lat": 50.730342,
        "stop_lon": 7.148731,
        "routes": [
            {
                "route_id": 600633,
                "shape_id": 3124,
                "start_stop_name": "Bonn Gerhart-Hauptmann-Str.",
                "end_stop_name": "Bonn Endenich Nord Bf",
                "agency_name": "SWB Stadtwerke Bonn Verkehrs GmbH"
            }
        ]
    },
    {
        "stop_id": 1583,
        "stop_name": "Bonn Samansstr.",
        "stop_lat": 50.725953,
        "stop_lon": 7.15079,
        "routes": [
            {
                "route_id": 600633,
                "shape_id": 3124,
                "start_stop_name": "Bonn Gerhart-Hauptmann-Str.",
                "end_stop_name": "Bonn Endenich Nord Bf",
                "agency_name": "SWB Stadtwerke Bonn Verkehrs GmbH"
            }
        ]
    },
    {
        "stop_id": 1584,
        "stop_name": "Bonn Ramersdorf",
        "stop_lat": 50.722377,
        "stop_lon": 7.155135,
        "routes": [
            {
                "route_id": 600633,
                "shape_id": 3124,
                "start_stop_name": "Bonn Gerhart-Hauptmann-Str.",
                "end_stop_name": "Bonn Endenich Nord Bf",
                "agency_name": "SWB Stadtwerke Bonn Verkehrs GmbH"
            }
        ]
    },
    {
        "stop_id": 1587,
        "stop_name": "Bonn Mehlemstr.",
        "stop_lat": 50.72397,
        "stop_lon": 7.153079,
        "routes": [
            {
                "route_id": 600633,
                "shape_id": 3124,
                "start_stop_name": "Bonn Gerhart-Hauptmann-Str.",
                "end_stop_name": "Bonn Endenich Nord Bf",
                "agency_name": "SWB Stadtwerke Bonn Verkehrs GmbH"
            }
        ]
    },
    {
        "stop_id": 1690,
        "stop_name": "Rheinbach Bf",
        "stop_lat": 50.629212,
        "stop_lon": 6.947502,
        "routes": [
            {
                "route_id": 1200741,
                "shape_id": 3121,
                "start_stop_name": "Rheinbach Bf",
                "end_stop_name": "Rheinbach Wilhelmsplatz",
                "agency_name": "RVK Regionalverkehr K\u00f6ln GmbH NL Meckenheim"
            }
        ]
    },
    {
        "stop_id": 1691,
        "stop_name": "Rheinbach Wilhelmsplatz",
        "stop_lat": 50.625937,
        "stop_lon": 6.946744,
        "routes": [
            {
                "route_id": 1200741,
                "shape_id": 3121,
                "start_stop_name": "Rheinbach Bf",
                "end_stop_name": "Rheinbach Wilhelmsplatz",
                "agency_name": "RVK Regionalverkehr K\u00f6ln GmbH NL Meckenheim"
            }
        ]
    },
    {
        "stop_id": 1694,
        "stop_name": "Rheinbach Schulzentrum",
        "stop_lat": 50.620301,
        "stop_lon": 6.941049,
        "routes": [
            {
                "route_id": 1200741,
                "shape_id": 3147,
                "start_stop_name": "Bad M\u00fcnstereifel Vogelsangstr.",
                "end_stop_name": "Bad M\u00fcnstereifel Limbach",
                "agency_name": "RVK Regionalverkehr K\u00f6ln GmbH NL Meckenheim"
            }
        ]
    },
    {
        "stop_id": 1734,
        "stop_name": "Waldbr\u00f6l Walberfeldstr.",
        "stop_lat": 50.872556,
        "stop_lon": 7.607659,
        "routes": [
            {
                "route_id": 800053,
                "shape_id": 1315,
                "start_stop_name": "Hennef Bf",
                "end_stop_name": "Hennef Br\u00f6ltalstr.",
                "agency_name": "RSVG Rhein-Sieg-Verkehrsgesellschaft mbH"
            }
        ]
    },
    {
        "stop_id": 1778,
        "stop_name": "K\u00f6nigswinter Clemens-August-Str.",
        "stop_lat": 50.676896,
        "stop_lon": 7.189275,
        "routes": [
            {
                "route_id": 800561,
                "shape_id": 671,
                "start_stop_name": "K\u00f6nigswinter Schulzentrum",
                "end_stop_name": "K\u00f6nigswinter Clemens-August-Str.",
                "agency_name": "RSVG Rhein-Sieg-Verkehrsgesellschaft mbH"
            }
        ]
    },
    {
        "stop_id": 1892,
        "stop_name": "Rheinbach M\u00fcnstereifeler Str.",
        "stop_lat": 50.625401,
        "stop_lon": 6.938579,
        "routes": [
            {
                "route_id": 1200741,
                "shape_id": 3121,
                "start_stop_name": "Rheinbach Bf",
                "end_stop_name": "Rheinbach Wilhelmsplatz",
                "agency_name": "RVK Regionalverkehr K\u00f6ln GmbH NL Meckenheim"
            }
        ]
    },
    {
        "stop_id": 1899,
        "stop_name": "Bad M\u00fcnstereifel Lanzerath",
        "stop_lat": 50.535157,
        "stop_lon": 6.91653,
        "routes": [
            {
                "route_id": 1200741,
                "shape_id": 3146,
                "start_stop_name": "Bad M\u00fcnstereifel Vogelsangstr.",
                "end_stop_name": "Bad M\u00fcnstereifel Limbach",
                "agency_name": "RVK Regionalverkehr K\u00f6ln GmbH NL Meckenheim"
            }
        ]
    },
    {
        "stop_id": 1949,
        "stop_name": "Bonn Robert-Havemann-Str.",
        "stop_lat": 50.734195,
        "stop_lon": 7.068848,
        "routes": [
            {
                "route_id": 600633,
                "shape_id": 3157,
                "start_stop_name": "Bonn Beuel Bf",
                "end_stop_name": "Bonn Beuel Hallenbad",
                "agency_name": "SWB Stadtwerke Bonn Verkehrs GmbH"
            }
        ]
    },
    {
        "stop_id": 1960,
        "stop_name": "Lindlar Frielinghausen",
        "stop_lat": 50.981154,
        "stop_lon": 7.318379,
        "routes": [
            {
                "route_id": 1100398,
                "shape_id": 2459,
                "start_stop_name": "Lindlar Vo\u00dfbrucher Str.",
                "end_stop_name": "Lindlar Schulzentrum",
                "agency_name": "OVAG Oberbergische Verkehrsgesellschaft mbH"
            }
        ]
    },
    {
        "stop_id": 2156,
        "stop_name": "K\u00f6nigswinter Linde",
        "stop_lat": 50.680183,
        "stop_lon": 7.262197,
        "routes": [
            {
                "route_id": 800561,
                "shape_id": 671,
                "start_stop_name": "K\u00f6nigswinter Schulzentrum",
                "end_stop_name": "K\u00f6nigswinter Clemens-August-Str.",
                "agency_name": "RSVG Rhein-Sieg-Verkehrsgesellschaft mbH"
            }
        ]
    },
    {
        "stop_id": 2157,
        "stop_name": "K\u00f6nigswinter Ittenbach Busbf",
        "stop_lat": 50.681246,
        "stop_lon": 7.271097,
        "routes": [
            {
                "route_id": 800561,
                "shape_id": 671,
                "start_stop_name": "K\u00f6nigswinter Schulzentrum",
                "end_stop_name": "K\u00f6nigswinter Clemens-August-Str.",
                "agency_name": "RSVG Rhein-Sieg-Verkehrsgesellschaft mbH"
            }
        ]
    },
    {
        "stop_id": 2181,
        "stop_name": "K\u00f6nigswinter Schulzentrum",
        "stop_lat": 50.681928,
        "stop_lon": 7.188553,
        "routes": [
            {
                "route_id": 800561,
                "shape_id": 671,
                "start_stop_name": "K\u00f6nigswinter Schulzentrum",
                "end_stop_name": "K\u00f6nigswinter Clemens-August-Str.",
                "agency_name": "RSVG Rhein-Sieg-Verkehrsgesellschaft mbH"
            }
        ]
    },
    {
        "stop_id": 2182,
        "stop_name": "K\u00f6nigswinter Bf",
        "stop_lat": 50.678632,
        "stop_lon": 7.193591,
        "routes": [
            {
                "route_id": 800561,
                "shape_id": 671,
                "start_stop_name": "K\u00f6nigswinter Schulzentrum",
                "end_stop_name": "K\u00f6nigswinter Clemens-August-Str.",
                "agency_name": "RSVG Rhein-Sieg-Verkehrsgesellschaft mbH"
            }
        ]
    },
    {
        "stop_id": 2183,
        "stop_name": "K\u00f6nigswinter Winterm\u00fchlenhof",
        "stop_lat": 50.678638,
        "stop_lon": 7.204345,
        "routes": [
            {
                "route_id": 800561,
                "shape_id": 671,
                "start_stop_name": "K\u00f6nigswinter Schulzentrum",
                "end_stop_name": "K\u00f6nigswinter Clemens-August-Str.",
                "agency_name": "RSVG Rhein-Sieg-Verkehrsgesellschaft mbH"
            }
        ]
    },
    {
        "stop_id": 2184,
        "stop_name": "K\u00f6nigswinter Rosenauer Weg",
        "stop_lat": 50.680434,
        "stop_lon": 7.217493,
        "routes": [
            {
                "route_id": 800561,
                "shape_id": 671,
                "start_stop_name": "K\u00f6nigswinter Schulzentrum",
                "end_stop_name": "K\u00f6nigswinter Clemens-August-Str.",
                "agency_name": "RSVG Rhein-Sieg-Verkehrsgesellschaft mbH"
            }
        ]
    },
    {
        "stop_id": 2185,
        "stop_name": "K\u00f6nigswinter Margarethenh\u00f6he",
        "stop_lat": 50.676812,
        "stop_lon": 7.247987,
        "routes": [
            {
                "route_id": 800561,
                "shape_id": 671,
                "start_stop_name": "K\u00f6nigswinter Schulzentrum",
                "end_stop_name": "K\u00f6nigswinter Clemens-August-Str.",
                "agency_name": "RSVG Rhein-Sieg-Verkehrsgesellschaft mbH"
            }
        ]
    },
    {
        "stop_id": 2190,
        "stop_name": "Bad Honnef Aegidiusplatz",
        "stop_lat": 50.662357,
        "stop_lon": 7.302099,
        "routes": [
            {
                "route_id": 800561,
                "shape_id": 671,
                "start_stop_name": "K\u00f6nigswinter Schulzentrum",
                "end_stop_name": "K\u00f6nigswinter Clemens-August-Str.",
                "agency_name": "RSVG Rhein-Sieg-Verkehrsgesellschaft mbH"
            }
        ]
    },
    {
        "stop_id": 2243,
        "stop_name": "Hennef Bf",
        "stop_lat": 50.773324,
        "stop_lon": 7.28458,
        "routes": [
            {
                "route_id": 800053,
                "shape_id": 1315,
                "start_stop_name": "Hennef Bf",
                "end_stop_name": "Hennef Br\u00f6ltalstr.",
                "agency_name": "RSVG Rhein-Sieg-Verkehrsgesellschaft mbH"
            }
        ]
    },
    {
        "stop_id": 2395,
        "stop_name": "Hennef Br\u00f6ltalstr.",
        "stop_lat": 50.772912,
        "stop_lon": 7.29903,
        "routes": [
            {
                "route_id": 800053,
                "shape_id": 1315,
                "start_stop_name": "Hennef Bf",
                "end_stop_name": "Hennef Br\u00f6ltalstr.",
                "agency_name": "RSVG Rhein-Sieg-Verkehrsgesellschaft mbH"
            }
        ]
    },
    {
        "stop_id": 2398,
        "stop_name": "Hennef Br\u00f6l Schule",
        "stop_lat": 50.787342,
        "stop_lon": 7.314973,
        "routes": [
            {
                "route_id": 800053,
                "shape_id": 1315,
                "start_stop_name": "Hennef Bf",
                "end_stop_name": "Hennef Br\u00f6ltalstr.",
                "agency_name": "RSVG Rhein-Sieg-Verkehrsgesellschaft mbH"
            }
        ]
    },
    {
        "stop_id": 2399,
        "stop_name": "Hennef Br\u00f6l Kirche",
        "stop_lat": 50.79133,
        "stop_lon": 7.328686,
        "routes": [
            {
                "route_id": 800053,
                "shape_id": 1315,
                "start_stop_name": "Hennef Bf",
                "end_stop_name": "Hennef Br\u00f6ltalstr.",
                "agency_name": "RSVG Rhein-Sieg-Verkehrsgesellschaft mbH"
            }
        ]
    },
    {
        "stop_id": 2400,
        "stop_name": "Hennef Katharinental",
        "stop_lat": 50.799929,
        "stop_lon": 7.336136,
        "routes": [
            {
                "route_id": 800053,
                "shape_id": 1315,
                "start_stop_name": "Hennef Bf",
                "end_stop_name": "Hennef Br\u00f6ltalstr.",
                "agency_name": "RSVG Rhein-Sieg-Verkehrsgesellschaft mbH"
            }
        ]
    },
    {
        "stop_id": 2401,
        "stop_name": "Neunkirchen-Seelscheid Ingersau",
        "stop_lat": 50.822827,
        "stop_lon": 7.356333,
        "routes": [
            {
                "route_id": 800053,
                "shape_id": 1315,
                "start_stop_name": "Hennef Bf",
                "end_stop_name": "Hennef Br\u00f6ltalstr.",
                "agency_name": "RSVG Rhein-Sieg-Verkehrsgesellschaft mbH"
            }
        ]
    },
    {
        "stop_id": 2403,
        "stop_name": "Ruppichteroth Herrnstein",
        "stop_lat": 50.829948,
        "stop_lon": 7.390507,
        "routes": [
            {
                "route_id": 800053,
                "shape_id": 1315,
                "start_stop_name": "Hennef Bf",
                "end_stop_name": "Hennef Br\u00f6ltalstr.",
                "agency_name": "RSVG Rhein-Sieg-Verkehrsgesellschaft mbH"
            }
        ]
    },
    {
        "stop_id": 2404,
        "stop_name": "Ruppichteroth B\u00fcchel",
        "stop_lat": 50.836268,
        "stop_lon": 7.404011,
        "routes": [
            {
                "route_id": 800053,
                "shape_id": 1315,
                "start_stop_name": "Hennef Bf",
                "end_stop_name": "Hennef Br\u00f6ltalstr.",
                "agency_name": "RSVG Rhein-Sieg-Verkehrsgesellschaft mbH"
            }
        ]
    },
    {
        "stop_id": 2405,
        "stop_name": "Ruppichteroth Br\u00f6leck",
        "stop_lat": 50.839844,
        "stop_lon": 7.416811,
        "routes": [
            {
                "route_id": 800053,
                "shape_id": 1315,
                "start_stop_name": "Hennef Bf",
                "end_stop_name": "Hennef Br\u00f6ltalstr.",
                "agency_name": "RSVG Rhein-Sieg-Verkehrsgesellschaft mbH"
            }
        ]
    },
    {
        "stop_id": 2406,
        "stop_name": "Ruppichteroth Brunnenweg",
        "stop_lat": 50.839295,
        "stop_lon": 7.433802,
        "routes": [
            {
                "route_id": 800053,
                "shape_id": 1315,
                "start_stop_name": "Hennef Bf",
                "end_stop_name": "Hennef Br\u00f6ltalstr.",
                "agency_name": "RSVG Rhein-Sieg-Verkehrsgesellschaft mbH"
            }
        ]
    },
    {
        "stop_id": 2407,
        "stop_name": "Ruppichteroth Sch\u00f6nenberg Mitte",
        "stop_lat": 50.83902,
        "stop_lon": 7.438579,
        "routes": [
            {
                "route_id": 800053,
                "shape_id": 1315,
                "start_stop_name": "Hennef Bf",
                "end_stop_name": "Hennef Br\u00f6ltalstr.",
                "agency_name": "RSVG Rhein-Sieg-Verkehrsgesellschaft mbH"
            }
        ]
    },
    {
        "stop_id": 2408,
        "stop_name": "Ruppichteroth Ahe",
        "stop_lat": 50.837195,
        "stop_lon": 7.457461,
        "routes": [
            {
                "route_id": 800053,
                "shape_id": 1315,
                "start_stop_name": "Hennef Bf",
                "end_stop_name": "Hennef Br\u00f6ltalstr.",
                "agency_name": "RSVG Rhein-Sieg-Verkehrsgesellschaft mbH"
            }
        ]
    },
    {
        "stop_id": 2409,
        "stop_name": "Ruppichteroth Harth",
        "stop_lat": 50.838995,
        "stop_lon": 7.472978,
        "routes": [
            {
                "route_id": 800053,
                "shape_id": 1315,
                "start_stop_name": "Hennef Bf",
                "end_stop_name": "Hennef Br\u00f6ltalstr.",
                "agency_name": "RSVG Rhein-Sieg-Verkehrsgesellschaft mbH"
            }
        ]
    },
    {
        "stop_id": 2410,
        "stop_name": "Ruppichteroth Post",
        "stop_lat": 50.842302,
        "stop_lon": 7.479485,
        "routes": [
            {
                "route_id": 800053,
                "shape_id": 1315,
                "start_stop_name": "Hennef Bf",
                "end_stop_name": "Hennef Br\u00f6ltalstr.",
                "agency_name": "RSVG Rhein-Sieg-Verkehrsgesellschaft mbH"
            }
        ]
    },
    {
        "stop_id": 2411,
        "stop_name": "Ruppichteroth Denkmal",
        "stop_lat": 50.844815,
        "stop_lon": 7.486196,
        "routes": [
            {
                "route_id": 800053,
                "shape_id": 1251,
                "start_stop_name": "Waldbr\u00f6l Schulzentrum",
                "end_stop_name": "Waldbr\u00f6l Beuinghausen",
                "agency_name": "RSVG Rhein-Sieg-Verkehrsgesellschaft mbH"
            }
        ]
    },
    {
        "stop_id": 2412,
        "stop_name": "Ruppichteroth Oeleroth",
        "stop_lat": 50.848063,
        "stop_lon": 7.501422,
        "routes": [
            {
                "route_id": 800053,
                "shape_id": 1251,
                "start_stop_name": "Waldbr\u00f6l Schulzentrum",
                "end_stop_name": "Waldbr\u00f6l Beuinghausen",
                "agency_name": "RSVG Rhein-Sieg-Verkehrsgesellschaft mbH"
            }
        ]
    },
    {
        "stop_id": 2413,
        "stop_name": "N\u00fcmbrecht Sch\u00f6nhausen",
        "stop_lat": 50.854908,
        "stop_lon": 7.515049,
        "routes": [
            {
                "route_id": 800053,
                "shape_id": 1251,
                "start_stop_name": "Waldbr\u00f6l Schulzentrum",
                "end_stop_name": "Waldbr\u00f6l Beuinghausen",
                "agency_name": "RSVG Rhein-Sieg-Verkehrsgesellschaft mbH"
            }
        ]
    },
    {
        "stop_id": 2414,
        "stop_name": "N\u00fcmbrecht Benroth",
        "stop_lat": 50.858027,
        "stop_lon": 7.524013,
        "routes": [
            {
                "route_id": 800053,
                "shape_id": 1251,
                "start_stop_name": "Waldbr\u00f6l Schulzentrum",
                "end_stop_name": "Waldbr\u00f6l Beuinghausen",
                "agency_name": "RSVG Rhein-Sieg-Verkehrsgesellschaft mbH"
            }
        ]
    },
    {
        "stop_id": 2415,
        "stop_name": "N\u00fcmbrecht Berkenroth",
        "stop_lat": 50.859672,
        "stop_lon": 7.545884,
        "routes": [
            {
                "route_id": 800053,
                "shape_id": 1251,
                "start_stop_name": "Waldbr\u00f6l Schulzentrum",
                "end_stop_name": "Waldbr\u00f6l Beuinghausen",
                "agency_name": "RSVG Rhein-Sieg-Verkehrsgesellschaft mbH"
            }
        ]
    },
    {
        "stop_id": 2421,
        "stop_name": "Waldbr\u00f6l Ziegenhardt",
        "stop_lat": 50.859263,
        "stop_lon": 7.559051,
        "routes": [
            {
                "route_id": 800053,
                "shape_id": 1251,
                "start_stop_name": "Waldbr\u00f6l Schulzentrum",
                "end_stop_name": "Waldbr\u00f6l Beuinghausen",
                "agency_name": "RSVG Rhein-Sieg-Verkehrsgesellschaft mbH"
            }
        ]
    },
    {
        "stop_id": 2423,
        "stop_name": "Waldbr\u00f6l Rossenbach",
        "stop_lat": 50.860131,
        "stop_lon": 7.575414,
        "routes": [
            {
                "route_id": 800053,
                "shape_id": 1251,
                "start_stop_name": "Waldbr\u00f6l Schulzentrum",
                "end_stop_name": "Waldbr\u00f6l Beuinghausen",
                "agency_name": "RSVG Rhein-Sieg-Verkehrsgesellschaft mbH"
            }
        ]
    },
    {
        "stop_id": 2424,
        "stop_name": "Waldbr\u00f6l Beuinghausen",
        "stop_lat": 50.862772,
        "stop_lon": 7.585518,
        "routes": [
            {
                "route_id": 800053,
                "shape_id": 1251,
                "start_stop_name": "Waldbr\u00f6l Schulzentrum",
                "end_stop_name": "Waldbr\u00f6l Beuinghausen",
                "agency_name": "RSVG Rhein-Sieg-Verkehrsgesellschaft mbH"
            }
        ]
    },
    {
        "stop_id": 2426,
        "stop_name": "Waldbr\u00f6l Brenzingen",
        "stop_lat": 50.870481,
        "stop_lon": 7.604235,
        "routes": [
            {
                "route_id": 800053,
                "shape_id": 1315,
                "start_stop_name": "Hennef Bf",
                "end_stop_name": "Hennef Br\u00f6ltalstr.",
                "agency_name": "RSVG Rhein-Sieg-Verkehrsgesellschaft mbH"
            }
        ]
    },
    {
        "stop_id": 2428,
        "stop_name": "Waldbr\u00f6l Busbf",
        "stop_lat": 50.874849,
        "stop_lon": 7.61281,
        "routes": [
            {
                "route_id": 800053,
                "shape_id": 1315,
                "start_stop_name": "Hennef Bf",
                "end_stop_name": "Hennef Br\u00f6ltalstr.",
                "agency_name": "RSVG Rhein-Sieg-Verkehrsgesellschaft mbH"
            }
        ]
    },
    {
        "stop_id": 2431,
        "stop_name": "Waldbr\u00f6l Krankenhaus",
        "stop_lat": 50.877888,
        "stop_lon": 7.629569,
        "routes": [
            {
                "route_id": 800053,
                "shape_id": 1315,
                "start_stop_name": "Hennef Bf",
                "end_stop_name": "Hennef Br\u00f6ltalstr.",
                "agency_name": "RSVG Rhein-Sieg-Verkehrsgesellschaft mbH"
            }
        ]
    },
    {
        "stop_id": 2432,
        "stop_name": "Waldbr\u00f6l Kreissparkasse",
        "stop_lat": 50.878277,
        "stop_lon": 7.621653,
        "routes": [
            {
                "route_id": 800053,
                "shape_id": 1315,
                "start_stop_name": "Hennef Bf",
                "end_stop_name": "Hennef Br\u00f6ltalstr.",
                "agency_name": "RSVG Rhein-Sieg-Verkehrsgesellschaft mbH"
            }
        ]
    },
    {
        "stop_id": 2433,
        "stop_name": "Waldbr\u00f6l Schulzentrum",
        "stop_lat": 50.875288,
        "stop_lon": 7.605721,
        "routes": [
            {
                "route_id": 800053,
                "shape_id": 1251,
                "start_stop_name": "Waldbr\u00f6l Schulzentrum",
                "end_stop_name": "Waldbr\u00f6l Beuinghausen",
                "agency_name": "RSVG Rhein-Sieg-Verkehrsgesellschaft mbH"
            }
        ]
    },
    {
        "stop_id": 2523,
        "stop_name": "Bonn Gerhard-Domagk-Str.",
        "stop_lat": 50.735186,
        "stop_lon": 7.071534,
        "routes": [
            {
                "route_id": 600633,
                "shape_id": 3157,
                "start_stop_name": "Bonn Beuel Bf",
                "end_stop_name": "Bonn Beuel Hallenbad",
                "agency_name": "SWB Stadtwerke Bonn Verkehrs GmbH"
            }
        ]
    },
    {
        "stop_id": 2524,
        "stop_name": "Bonn Vaclav-Havel-Platz",
        "stop_lat": 50.737406,
        "stop_lon": 7.069601,
        "routes": [
            {
                "route_id": 600633,
                "shape_id": 3124,
                "start_stop_name": "Bonn Gerhart-Hauptmann-Str.",
                "end_stop_name": "Bonn Endenich Nord Bf",
                "agency_name": "SWB Stadtwerke Bonn Verkehrs GmbH"
            }
        ]
    },
    {
        "stop_id": 2747,
        "stop_name": "Br\u00fchl Max-Ernst-Museum",
        "stop_lat": 50.830384,
        "stop_lon": 6.910863,
        "routes": [
            {
                "route_id": 2400703,
                "shape_id": 3724,
                "start_stop_name": "Br\u00fchl Mitte",
                "end_stop_name": "Br\u00fchl Nord",
                "agency_name": "StWB Stadtwerke Br\u00fchl"
            }
        ]
    },
    {
        "stop_id": 2810,
        "stop_name": "Bonn Beuel Hallenbad",
        "stop_lat": 50.737572,
        "stop_lon": 7.123593,
        "routes": [
            {
                "route_id": 600633,
                "shape_id": 3124,
                "start_stop_name": "Bonn Gerhart-Hauptmann-Str.",
                "end_stop_name": "Bonn Endenich Nord Bf",
                "agency_name": "SWB Stadtwerke Bonn Verkehrs GmbH"
            }
        ]
    },
    {
        "stop_id": 3039,
        "stop_name": "Leverkusen Quettinger Str.",
        "stop_lat": 51.059354,
        "stop_lon": 7.01901,
        "routes": [
            {
                "route_id": 300020,
                "shape_id": 1,
                "start_stop_name": "Leverkusen Forellental",
                "end_stop_name": "Leverkusen Sch\u00f6ne Aussicht",
                "agency_name": "wupsi wupsi GmbH"
            }
        ]
    },
    {
        "stop_id": 3040,
        "stop_name": "Leverkusen Jakobistr.",
        "stop_lat": 51.061134,
        "stop_lon": 7.028207,
        "routes": [
            {
                "route_id": 300020,
                "shape_id": 1,
                "start_stop_name": "Leverkusen Forellental",
                "end_stop_name": "Leverkusen Sch\u00f6ne Aussicht",
                "agency_name": "wupsi wupsi GmbH"
            }
        ]
    },
    {
        "stop_id": 3041,
        "stop_name": "Leverkusen Holzer Weg",
        "stop_lat": 51.062561,
        "stop_lon": 7.033588,
        "routes": [
            {
                "route_id": 300020,
                "shape_id": 1,
                "start_stop_name": "Leverkusen Forellental",
                "end_stop_name": "Leverkusen Sch\u00f6ne Aussicht",
                "agency_name": "wupsi wupsi GmbH"
            }
        ]
    },
    {
        "stop_id": 3042,
        "stop_name": "Leverkusen Feldsiefer Weg",
        "stop_lat": 51.063411,
        "stop_lon": 7.040154,
        "routes": [
            {
                "route_id": 300020,
                "shape_id": 1,
                "start_stop_name": "Leverkusen Forellental",
                "end_stop_name": "Leverkusen Sch\u00f6ne Aussicht",
                "agency_name": "wupsi wupsi GmbH"
            }
        ]
    },
    {
        "stop_id": 3043,
        "stop_name": "Leverkusen In Holzhausen",
        "stop_lat": 51.063777,
        "stop_lon": 7.044399,
        "routes": [
            {
                "route_id": 300020,
                "shape_id": 1,
                "start_stop_name": "Leverkusen Forellental",
                "end_stop_name": "Leverkusen Sch\u00f6ne Aussicht",
                "agency_name": "wupsi wupsi GmbH"
            }
        ]
    },
    {
        "stop_id": 3044,
        "stop_name": "Leverkusen Leineweberstr.",
        "stop_lat": 51.064417,
        "stop_lon": 7.050291,
        "routes": [
            {
                "route_id": 300020,
                "shape_id": 1,
                "start_stop_name": "Leverkusen Forellental",
                "end_stop_name": "Leverkusen Sch\u00f6ne Aussicht",
                "agency_name": "wupsi wupsi GmbH"
            }
        ]
    },
    {
        "stop_id": 3045,
        "stop_name": "Leverkusen L\u00fctzenkirchen Mitte",
        "stop_lat": 51.065274,
        "stop_lon": 7.055846,
        "routes": [
            {
                "route_id": 300020,
                "shape_id": 1,
                "start_stop_name": "Leverkusen Forellental",
                "end_stop_name": "Leverkusen Sch\u00f6ne Aussicht",
                "agency_name": "wupsi wupsi GmbH"
            }
        ]
    },
    {
        "stop_id": 3054,
        "stop_name": "Leverkusen Forellental",
        "stop_lat": 51.073036,
        "stop_lon": 7.062358,
        "routes": [
            {
                "route_id": 300020,
                "shape_id": 1,
                "start_stop_name": "Leverkusen Forellental",
                "end_stop_name": "Leverkusen Sch\u00f6ne Aussicht",
                "agency_name": "wupsi wupsi GmbH"
            }
        ]
    },
    {
        "stop_id": 3055,
        "stop_name": "Leverkusen Sch\u00f6ne Aussicht",
        "stop_lat": 51.072853,
        "stop_lon": 7.056718,
        "routes": [
            {
                "route_id": 300020,
                "shape_id": 1,
                "start_stop_name": "Leverkusen Forellental",
                "end_stop_name": "Leverkusen Sch\u00f6ne Aussicht",
                "agency_name": "wupsi wupsi GmbH"
            }
        ]
    },
    {
        "stop_id": 3056,
        "stop_name": "Leverkusen Kinderhausen",
        "stop_lat": 51.068735,
        "stop_lon": 7.057851,
        "routes": [
            {
                "route_id": 300020,
                "shape_id": 1,
                "start_stop_name": "Leverkusen Forellental",
                "end_stop_name": "Leverkusen Sch\u00f6ne Aussicht",
                "agency_name": "wupsi wupsi GmbH"
            }
        ]
    },
    {
        "stop_id": 3554,
        "stop_name": "Bad Honnef Wintersberg",
        "stop_lat": 50.654342,
        "stop_lon": 7.31295,
        "routes": [
            {
                "route_id": 800561,
                "shape_id": 671,
                "start_stop_name": "K\u00f6nigswinter Schulzentrum",
                "end_stop_name": "K\u00f6nigswinter Clemens-August-Str.",
                "agency_name": "RSVG Rhein-Sieg-Verkehrsgesellschaft mbH"
            }
        ]
    },
    {
        "stop_id": 3642,
        "stop_name": "Lindlar Busbf",
        "stop_lat": 51.019262,
        "stop_lon": 7.379661,
        "routes": [
            {
                "route_id": 1100398,
                "shape_id": 2459,
                "start_stop_name": "Lindlar Vo\u00dfbrucher Str.",
                "end_stop_name": "Lindlar Schulzentrum",
                "agency_name": "OVAG Oberbergische Verkehrsgesellschaft mbH"
            }
        ]
    },
    {
        "stop_id": 3807,
        "stop_name": "Lindlar Schmitzh\u00f6he Kirche",
        "stop_lat": 50.987365,
        "stop_lon": 7.27879,
        "routes": [
            {
                "route_id": 1100398,
                "shape_id": 2459,
                "start_stop_name": "Lindlar Vo\u00dfbrucher Str.",
                "end_stop_name": "Lindlar Schulzentrum",
                "agency_name": "OVAG Oberbergische Verkehrsgesellschaft mbH"
            }
        ]
    },
    {
        "stop_id": 3808,
        "stop_name": "Lindlar Schmitzh\u00f6he Schule",
        "stop_lat": 50.990045,
        "stop_lon": 7.281228,
        "routes": [
            {
                "route_id": 1100398,
                "shape_id": 2459,
                "start_stop_name": "Lindlar Vo\u00dfbrucher Str.",
                "end_stop_name": "Lindlar Schulzentrum",
                "agency_name": "OVAG Oberbergische Verkehrsgesellschaft mbH"
            }
        ]
    },
    {
        "stop_id": 3817,
        "stop_name": "Lindlar Oberheiligenhoven",
        "stop_lat": 51.014652,
        "stop_lon": 7.362665,
        "routes": [
            {
                "route_id": 1100398,
                "shape_id": 2459,
                "start_stop_name": "Lindlar Vo\u00dfbrucher Str.",
                "end_stop_name": "Lindlar Schulzentrum",
                "agency_name": "OVAG Oberbergische Verkehrsgesellschaft mbH"
            }
        ]
    },
    {
        "stop_id": 3818,
        "stop_name": "Lindlar Steinscheid",
        "stop_lat": 51.010581,
        "stop_lon": 7.353355,
        "routes": [
            {
                "route_id": 1100398,
                "shape_id": 2459,
                "start_stop_name": "Lindlar Vo\u00dfbrucher Str.",
                "end_stop_name": "Lindlar Schulzentrum",
                "agency_name": "OVAG Oberbergische Verkehrsgesellschaft mbH"
            }
        ]
    },
    {
        "stop_id": 3819,
        "stop_name": "Lindlar Klespe",
        "stop_lat": 51.00294,
        "stop_lon": 7.347106,
        "routes": [
            {
                "route_id": 1100398,
                "shape_id": 2459,
                "start_stop_name": "Lindlar Vo\u00dfbrucher Str.",
                "end_stop_name": "Lindlar Schulzentrum",
                "agency_name": "OVAG Oberbergische Verkehrsgesellschaft mbH"
            }
        ]
    },
    {
        "stop_id": 3821,
        "stop_name": "Lindlar Vellingen",
        "stop_lat": 50.989673,
        "stop_lon": 7.320258,
        "routes": [
            {
                "route_id": 1100398,
                "shape_id": 2459,
                "start_stop_name": "Lindlar Vo\u00dfbrucher Str.",
                "end_stop_name": "Lindlar Schulzentrum",
                "agency_name": "OVAG Oberbergische Verkehrsgesellschaft mbH"
            }
        ]
    },
    {
        "stop_id": 3822,
        "stop_name": "Lindlar Kepplerm\u00fchle",
        "stop_lat": 50.986196,
        "stop_lon": 7.308922,
        "routes": [
            {
                "route_id": 1100398,
                "shape_id": 2459,
                "start_stop_name": "Lindlar Vo\u00dfbrucher Str.",
                "end_stop_name": "Lindlar Schulzentrum",
                "agency_name": "OVAG Oberbergische Verkehrsgesellschaft mbH"
            }
        ]
    },
    {
        "stop_id": 3823,
        "stop_name": "Lindlar Loxsteeg",
        "stop_lat": 50.98393,
        "stop_lon": 7.301724,
        "routes": [
            {
                "route_id": 1100398,
                "shape_id": 2459,
                "start_stop_name": "Lindlar Vo\u00dfbrucher Str.",
                "end_stop_name": "Lindlar Schulzentrum",
                "agency_name": "OVAG Oberbergische Verkehrsgesellschaft mbH"
            }
        ]
    },
    {
        "stop_id": 3824,
        "stop_name": "Lindlar K\u00f6ttingen",
        "stop_lat": 50.981104,
        "stop_lon": 7.290637,
        "routes": [
            {
                "route_id": 1100398,
                "shape_id": 2459,
                "start_stop_name": "Lindlar Vo\u00dfbrucher Str.",
                "end_stop_name": "Lindlar Schulzentrum",
                "agency_name": "OVAG Oberbergische Verkehrsgesellschaft mbH"
            }
        ]
    },
    {
        "stop_id": 3839,
        "stop_name": "Lindlar Hohkeppel Kirche",
        "stop_lat": 50.9797,
        "stop_lon": 7.310947,
        "routes": [
            {
                "route_id": 1100398,
                "shape_id": 2459,
                "start_stop_name": "Lindlar Vo\u00dfbrucher Str.",
                "end_stop_name": "Lindlar Schulzentrum",
                "agency_name": "OVAG Oberbergische Verkehrsgesellschaft mbH"
            }
        ]
    },
    {
        "stop_id": 3911,
        "stop_name": "Lindlar K\u00f6lner Str.",
        "stop_lat": 51.017516,
        "stop_lon": 7.371443,
        "routes": [
            {
                "route_id": 1100398,
                "shape_id": 2459,
                "start_stop_name": "Lindlar Vo\u00dfbrucher Str.",
                "end_stop_name": "Lindlar Schulzentrum",
                "agency_name": "OVAG Oberbergische Verkehrsgesellschaft mbH"
            }
        ]
    },
    {
        "stop_id": 4145,
        "stop_name": "Lindlar Vo\u00dfbrucher Str.",
        "stop_lat": 51.015121,
        "stop_lon": 7.375591,
        "routes": [
            {
                "route_id": 1100398,
                "shape_id": 2459,
                "start_stop_name": "Lindlar Vo\u00dfbrucher Str.",
                "end_stop_name": "Lindlar Schulzentrum",
                "agency_name": "OVAG Oberbergische Verkehrsgesellschaft mbH"
            }
        ]
    },
    {
        "stop_id": 4939,
        "stop_name": "Bad Honnef Himberg",
        "stop_lat": 50.650856,
        "stop_lon": 7.303195,
        "routes": [
            {
                "route_id": 800561,
                "shape_id": 671,
                "start_stop_name": "K\u00f6nigswinter Schulzentrum",
                "end_stop_name": "K\u00f6nigswinter Clemens-August-Str.",
                "agency_name": "RSVG Rhein-Sieg-Verkehrsgesellschaft mbH"
            }
        ]
    },
    {
        "stop_id": 4940,
        "stop_name": "Bad Honnef Siefenhoven",
        "stop_lat": 50.656453,
        "stop_lon": 7.301922,
        "routes": [
            {
                "route_id": 800561,
                "shape_id": 671,
                "start_stop_name": "K\u00f6nigswinter Schulzentrum",
                "end_stop_name": "K\u00f6nigswinter Clemens-August-Str.",
                "agency_name": "RSVG Rhein-Sieg-Verkehrsgesellschaft mbH"
            }
        ]
    },
    {
        "stop_id": 4953,
        "stop_name": "Bad Honnef Orscheid",
        "stop_lat": 50.658536,
        "stop_lon": 7.329204,
        "routes": [
            {
                "route_id": 800561,
                "shape_id": 671,
                "start_stop_name": "K\u00f6nigswinter Schulzentrum",
                "end_stop_name": "K\u00f6nigswinter Clemens-August-Str.",
                "agency_name": "RSVG Rhein-Sieg-Verkehrsgesellschaft mbH"
            }
        ]
    },
    {
        "stop_id": 4954,
        "stop_name": "Bad Honnef J\u00e4gerheim",
        "stop_lat": 50.665092,
        "stop_lon": 7.339192,
        "routes": [
            {
                "route_id": 800561,
                "shape_id": 671,
                "start_stop_name": "K\u00f6nigswinter Schulzentrum",
                "end_stop_name": "K\u00f6nigswinter Clemens-August-Str.",
                "agency_name": "RSVG Rhein-Sieg-Verkehrsgesellschaft mbH"
            }
        ]
    },
    {
        "stop_id": 4955,
        "stop_name": "Bad Honnef W\u00fclscheid Post",
        "stop_lat": 50.67143,
        "stop_lon": 7.336882,
        "routes": [
            {
                "route_id": 800561,
                "shape_id": 671,
                "start_stop_name": "K\u00f6nigswinter Schulzentrum",
                "end_stop_name": "K\u00f6nigswinter Clemens-August-Str.",
                "agency_name": "RSVG Rhein-Sieg-Verkehrsgesellschaft mbH"
            }
        ]
    },
    {
        "stop_id": 5228,
        "stop_name": "Leverkusen Mitte Bf",
        "stop_lat": 51.031508,
        "stop_lon": 6.991655,
        "routes": [
            {
                "route_id": 300020,
                "shape_id": 1,
                "start_stop_name": "Leverkusen Forellental",
                "end_stop_name": "Leverkusen Sch\u00f6ne Aussicht",
                "agency_name": "wupsi wupsi GmbH"
            }
        ]
    },
    {
        "stop_id": 5353,
        "stop_name": "Br\u00fchl K\u00f6lnstr./Comesstr.",
        "stop_lat": 50.831617,
        "stop_lon": 6.906175,
        "routes": [
            {
                "route_id": 2400703,
                "shape_id": 3724,
                "start_stop_name": "Br\u00fchl Mitte",
                "end_stop_name": "Br\u00fchl Nord",
                "agency_name": "StWB Stadtwerke Br\u00fchl"
            }
        ]
    },
    {
        "stop_id": 5358,
        "stop_name": "Br\u00fchl Rosenhof",
        "stop_lat": 50.829686,
        "stop_lon": 6.918529,
        "routes": [
            {
                "route_id": 2400703,
                "shape_id": 3724,
                "start_stop_name": "Br\u00fchl Mitte",
                "end_stop_name": "Br\u00fchl Nord",
                "agency_name": "StWB Stadtwerke Br\u00fchl"
            }
        ]
    },
    {
        "stop_id": 5359,
        "stop_name": "Br\u00fchl Bergerstr.",
        "stop_lat": 50.829477,
        "stop_lon": 6.923421,
        "routes": [
            {
                "route_id": 2400703,
                "shape_id": 3724,
                "start_stop_name": "Br\u00fchl Mitte",
                "end_stop_name": "Br\u00fchl Nord",
                "agency_name": "StWB Stadtwerke Br\u00fchl"
            }
        ]
    },
    {
        "stop_id": 6021,
        "stop_name": "Rheinbach Himmeroder Wall",
        "stop_lat": 50.623962,
        "stop_lon": 6.948584,
        "routes": [
            {
                "route_id": 1200741,
                "shape_id": 3147,
                "start_stop_name": "Bad M\u00fcnstereifel Vogelsangstr.",
                "end_stop_name": "Bad M\u00fcnstereifel Limbach",
                "agency_name": "RVK Regionalverkehr K\u00f6ln GmbH NL Meckenheim"
            }
        ]
    },
    {
        "stop_id": 6075,
        "stop_name": "Rheinbach Loch",
        "stop_lat": 50.597325,
        "stop_lon": 6.891792,
        "routes": [
            {
                "route_id": 1200741,
                "shape_id": 3121,
                "start_stop_name": "Rheinbach Bf",
                "end_stop_name": "Rheinbach Wilhelmsplatz",
                "agency_name": "RVK Regionalverkehr K\u00f6ln GmbH NL Meckenheim"
            }
        ]
    },
    {
        "stop_id": 6076,
        "stop_name": "Rheinbach Queckenberg",
        "stop_lat": 50.593722,
        "stop_lon": 6.89147,
        "routes": [
            {
                "route_id": 1200741,
                "shape_id": 3121,
                "start_stop_name": "Rheinbach Bf",
                "end_stop_name": "Rheinbach Wilhelmsplatz",
                "agency_name": "RVK Regionalverkehr K\u00f6ln GmbH NL Meckenheim"
            }
        ]
    },
    {
        "stop_id": 6077,
        "stop_name": "Rheinbach S\u00fcrst-Hardt",
        "stop_lat": 50.588084,
        "stop_lon": 6.899935,
        "routes": [
            {
                "route_id": 1200741,
                "shape_id": 3121,
                "start_stop_name": "Rheinbach Bf",
                "end_stop_name": "Rheinbach Wilhelmsplatz",
                "agency_name": "RVK Regionalverkehr K\u00f6ln GmbH NL Meckenheim"
            }
        ]
    },
    {
        "stop_id": 6079,
        "stop_name": "Rheinbach Kurtenberg",
        "stop_lat": 50.580571,
        "stop_lon": 6.915774,
        "routes": [
            {
                "route_id": 1200741,
                "shape_id": 3121,
                "start_stop_name": "Rheinbach Bf",
                "end_stop_name": "Rheinbach Wilhelmsplatz",
                "agency_name": "RVK Regionalverkehr K\u00f6ln GmbH NL Meckenheim"
            }
        ]
    },
    {
        "stop_id": 6088,
        "stop_name": "Rheinbach Gut Waldau",
        "stop_lat": 50.614196,
        "stop_lon": 6.91411,
        "routes": [
            {
                "route_id": 1200741,
                "shape_id": 3121,
                "start_stop_name": "Rheinbach Bf",
                "end_stop_name": "Rheinbach Wilhelmsplatz",
                "agency_name": "RVK Regionalverkehr K\u00f6ln GmbH NL Meckenheim"
            }
        ]
    },
    {
        "stop_id": 6089,
        "stop_name": "Bad M\u00fcnstereifel Scheuren",
        "stop_lat": 50.557801,
        "stop_lon": 6.901785,
        "routes": [
            {
                "route_id": 1200741,
                "shape_id": 3146,
                "start_stop_name": "Bad M\u00fcnstereifel Vogelsangstr.",
                "end_stop_name": "Bad M\u00fcnstereifel Limbach",
                "agency_name": "RVK Regionalverkehr K\u00f6ln GmbH NL Meckenheim"
            }
        ]
    },
    {
        "stop_id": 6090,
        "stop_name": "Bad M\u00fcnstereifel Maulbach",
        "stop_lat": 50.553983,
        "stop_lon": 6.91293,
        "routes": [
            {
                "route_id": 1200741,
                "shape_id": 3146,
                "start_stop_name": "Bad M\u00fcnstereifel Vogelsangstr.",
                "end_stop_name": "Bad M\u00fcnstereifel Limbach",
                "agency_name": "RVK Regionalverkehr K\u00f6ln GmbH NL Meckenheim"
            }
        ]
    },
    {
        "stop_id": 6091,
        "stop_name": "Bad M\u00fcnstereifel Eichen",
        "stop_lat": 50.541991,
        "stop_lon": 6.918596,
        "routes": [
            {
                "route_id": 1200741,
                "shape_id": 3146,
                "start_stop_name": "Bad M\u00fcnstereifel Vogelsangstr.",
                "end_stop_name": "Bad M\u00fcnstereifel Limbach",
                "agency_name": "RVK Regionalverkehr K\u00f6ln GmbH NL Meckenheim"
            }
        ]
    },
    {
        "stop_id": 6092,
        "stop_name": "Bad M\u00fcnstereifel Kirchsahr Abzw.",
        "stop_lat": 50.53721,
        "stop_lon": 6.908078,
        "routes": [
            {
                "route_id": 1200741,
                "shape_id": 3146,
                "start_stop_name": "Bad M\u00fcnstereifel Vogelsangstr.",
                "end_stop_name": "Bad M\u00fcnstereifel Limbach",
                "agency_name": "RVK Regionalverkehr K\u00f6ln GmbH NL Meckenheim"
            }
        ]
    },
    {
        "stop_id": 6094,
        "stop_name": "Bad M\u00fcnstereifel Limbach",
        "stop_lat": 50.538925,
        "stop_lon": 6.8944,
        "routes": [
            {
                "route_id": 1200741,
                "shape_id": 3146,
                "start_stop_name": "Bad M\u00fcnstereifel Vogelsangstr.",
                "end_stop_name": "Bad M\u00fcnstereifel Limbach",
                "agency_name": "RVK Regionalverkehr K\u00f6ln GmbH NL Meckenheim"
            }
        ]
    },
    {
        "stop_id": 6095,
        "stop_name": "Bad M\u00fcnstereifel Vogelsangstr.",
        "stop_lat": 50.537856,
        "stop_lon": 6.880118,
        "routes": [
            {
                "route_id": 1200741,
                "shape_id": 3146,
                "start_stop_name": "Bad M\u00fcnstereifel Vogelsangstr.",
                "end_stop_name": "Bad M\u00fcnstereifel Limbach",
                "agency_name": "RVK Regionalverkehr K\u00f6ln GmbH NL Meckenheim"
            }
        ]
    },
    {
        "stop_id": 7023,
        "stop_name": "Bad M\u00fcnstereifel Hochth\u00fcrmer Blick",
        "stop_lat": 50.539434,
        "stop_lon": 6.9053,
        "routes": [
            {
                "route_id": 1200741,
                "shape_id": 3146,
                "start_stop_name": "Bad M\u00fcnstereifel Vogelsangstr.",
                "end_stop_name": "Bad M\u00fcnstereifel Limbach",
                "agency_name": "RVK Regionalverkehr K\u00f6ln GmbH NL Meckenheim"
            }
        ]
    },
    {
        "stop_id": 7124,
        "stop_name": "K\u00f6nigswinter Hauptstr.",
        "stop_lat": 50.676358,
        "stop_lon": 7.191723,
        "routes": [
            {
                "route_id": 800561,
                "shape_id": 671,
                "start_stop_name": "K\u00f6nigswinter Schulzentrum",
                "end_stop_name": "K\u00f6nigswinter Clemens-August-Str.",
                "agency_name": "RSVG Rhein-Sieg-Verkehrsgesellschaft mbH"
            }
        ]
    },
    {
        "stop_id": 7131,
        "stop_name": "Bonn K\u00f6nigswinterer Str.",
        "stop_lat": 50.736761,
        "stop_lon": 7.13033,
        "routes": [
            {
                "route_id": 600633,
                "shape_id": 3124,
                "start_stop_name": "Bonn Gerhart-Hauptmann-Str.",
                "end_stop_name": "Bonn Endenich Nord Bf",
                "agency_name": "SWB Stadtwerke Bonn Verkehrs GmbH"
            }
        ]
    },
    {
        "stop_id": 7539,
        "stop_name": "Br\u00fchl Telekom",
        "stop_lat": 50.834286,
        "stop_lon": 6.919939,
        "routes": [
            {
                "route_id": 2400703,
                "shape_id": 3724,
                "start_stop_name": "Br\u00fchl Mitte",
                "end_stop_name": "Br\u00fchl Nord",
                "agency_name": "StWB Stadtwerke Br\u00fchl"
            }
        ]
    },
    {
        "stop_id": 7544,
        "stop_name": "Br\u00fchl Engeldorfer Str.",
        "stop_lat": 50.839171,
        "stop_lon": 6.919496,
        "routes": [
            {
                "route_id": 2400703,
                "shape_id": 3724,
                "start_stop_name": "Br\u00fchl Mitte",
                "end_stop_name": "Br\u00fchl Nord",
                "agency_name": "StWB Stadtwerke Br\u00fchl"
            }
        ]
    },
    {
        "stop_id": 7545,
        "stop_name": "Br\u00fchl Berzdorfer Str.",
        "stop_lat": 50.837973,
        "stop_lon": 6.923234,
        "routes": [
            {
                "route_id": 2400703,
                "shape_id": 3724,
                "start_stop_name": "Br\u00fchl Mitte",
                "end_stop_name": "Br\u00fchl Nord",
                "agency_name": "StWB Stadtwerke Br\u00fchl"
            }
        ]
    },
    {
        "stop_id": 7728,
        "stop_name": "Bonn Kolpingstr.",
        "stop_lat": 50.73665,
        "stop_lon": 7.06481,
        "routes": [
            {
                "route_id": 600633,
                "shape_id": 3124,
                "start_stop_name": "Bonn Gerhart-Hauptmann-Str.",
                "end_stop_name": "Bonn Endenich Nord Bf",
                "agency_name": "SWB Stadtwerke Bonn Verkehrs GmbH"
            }
        ]
    },
    {
        "stop_id": 7969,
        "stop_name": "Bad M\u00fcnstereifel Limbacher Str.",
        "stop_lat": 50.541829,
        "stop_lon": 6.902482,
        "routes": [
            {
                "route_id": 1200741,
                "shape_id": 3146,
                "start_stop_name": "Bad M\u00fcnstereifel Vogelsangstr.",
                "end_stop_name": "Bad M\u00fcnstereifel Limbach",
                "agency_name": "RVK Regionalverkehr K\u00f6ln GmbH NL Meckenheim"
            }
        ]
    },
    {
        "stop_id": 7979,
        "stop_name": "Bad Honnef Im Heidchen",
        "stop_lat": 50.663146,
        "stop_lon": 7.337991,
        "routes": [
            {
                "route_id": 800561,
                "shape_id": 671,
                "start_stop_name": "K\u00f6nigswinter Schulzentrum",
                "end_stop_name": "K\u00f6nigswinter Clemens-August-Str.",
                "agency_name": "RSVG Rhein-Sieg-Verkehrsgesellschaft mbH"
            }
        ]
    },
    {
        "stop_id": 8279,
        "stop_name": "Lindlar Schulzentrum",
        "stop_lat": 51.015755,
        "stop_lon": 7.37065,
        "routes": [
            {
                "route_id": 1100398,
                "shape_id": 2459,
                "start_stop_name": "Lindlar Vo\u00dfbrucher Str.",
                "end_stop_name": "Lindlar Schulzentrum",
                "agency_name": "OVAG Oberbergische Verkehrsgesellschaft mbH"
            }
        ]
    },
    {
        "stop_id": 8646,
        "stop_name": "Lindlar Unterheiligenhoven",
        "stop_lat": 51.005758,
        "stop_lon": 7.35065,
        "routes": [
            {
                "route_id": 1100398,
                "shape_id": 2459,
                "start_stop_name": "Lindlar Vo\u00dfbrucher Str.",
                "end_stop_name": "Lindlar Schulzentrum",
                "agency_name": "OVAG Oberbergische Verkehrsgesellschaft mbH"
            }
        ]
    },
    {
        "stop_id": 8759,
        "stop_name": "Ruppichteroth Hallenbad",
        "stop_lat": 50.846327,
        "stop_lon": 7.493827,
        "routes": [
            {
                "route_id": 800053,
                "shape_id": 1251,
                "start_stop_name": "Waldbr\u00f6l Schulzentrum",
                "end_stop_name": "Waldbr\u00f6l Beuinghausen",
                "agency_name": "RSVG Rhein-Sieg-Verkehrsgesellschaft mbH"
            }
        ]
    },
    {
        "stop_id": 8832,
        "stop_name": "Bonn Endenich Nord Bf",
        "stop_lat": 50.735586,
        "stop_lon": 7.062208,
        "routes": [
            {
                "route_id": 600633,
                "shape_id": 3124,
                "start_stop_name": "Bonn Gerhart-Hauptmann-Str.",
                "end_stop_name": "Bonn Endenich Nord Bf",
                "agency_name": "SWB Stadtwerke Bonn Verkehrs GmbH"
            }
        ]
    },
    {
        "stop_id": 8935,
        "stop_name": "Leverkusen In der Dasladen",
        "stop_lat": 51.063341,
        "stop_lon": 7.036829,
        "routes": [
            {
                "route_id": 300020,
                "shape_id": 1,
                "start_stop_name": "Leverkusen Forellental",
                "end_stop_name": "Leverkusen Sch\u00f6ne Aussicht",
                "agency_name": "wupsi wupsi GmbH"
            }
        ]
    },
    {
        "stop_id": 9161,
        "stop_name": "Bonn Hermannstr./Konrad-Adenauer-Platz",
        "stop_lat": 50.737927,
        "stop_lon": 7.116546,
        "routes": [
            {
                "route_id": 600633,
                "shape_id": 3124,
                "start_stop_name": "Bonn Gerhart-Hauptmann-Str.",
                "end_stop_name": "Bonn Endenich Nord Bf",
                "agency_name": "SWB Stadtwerke Bonn Verkehrs GmbH"
            }
        ]
    },
    {
        "stop_id": 9233,
        "stop_name": "Lindlar Sch\u00f6nenborn",
        "stop_lat": 50.984764,
        "stop_lon": 7.282435,
        "routes": [
            {
                "route_id": 1100398,
                "shape_id": 2459,
                "start_stop_name": "Lindlar Vo\u00dfbrucher Str.",
                "end_stop_name": "Lindlar Schulzentrum",
                "agency_name": "OVAG Oberbergische Verkehrsgesellschaft mbH"
            }
        ]
    },
    {
        "stop_id": 9255,
        "stop_name": "Lindlar Klespe Abzw.",
        "stop_lat": 51.000347,
        "stop_lon": 7.347416,
        "routes": [
            {
                "route_id": 1100398,
                "shape_id": 2459,
                "start_stop_name": "Lindlar Vo\u00dfbrucher Str.",
                "end_stop_name": "Lindlar Schulzentrum",
                "agency_name": "OVAG Oberbergische Verkehrsgesellschaft mbH"
            }
        ]
    },
    {
        "stop_id": 9256,
        "stop_name": "Lindlar W\u00fcstenhof",
        "stop_lat": 50.991485,
        "stop_lon": 7.351247,
        "routes": [
            {
                "route_id": 1100398,
                "shape_id": 2459,
                "start_stop_name": "Lindlar Vo\u00dfbrucher Str.",
                "end_stop_name": "Lindlar Schulzentrum",
                "agency_name": "OVAG Oberbergische Verkehrsgesellschaft mbH"
            }
        ]
    },
    {
        "stop_id": 9257,
        "stop_name": "Lindlar Oberfrielinghausen Abzw.",
        "stop_lat": 50.98764,
        "stop_lon": 7.342404,
        "routes": [
            {
                "route_id": 1100398,
                "shape_id": 2459,
                "start_stop_name": "Lindlar Vo\u00dfbrucher Str.",
                "end_stop_name": "Lindlar Schulzentrum",
                "agency_name": "OVAG Oberbergische Verkehrsgesellschaft mbH"
            }
        ]
    },
    {
        "stop_id": 9259,
        "stop_name": "Lindlar Hohbusch",
        "stop_lat": 50.982,
        "stop_lon": 7.329368,
        "routes": [
            {
                "route_id": 1100398,
                "shape_id": 2459,
                "start_stop_name": "Lindlar Vo\u00dfbrucher Str.",
                "end_stop_name": "Lindlar Schulzentrum",
                "agency_name": "OVAG Oberbergische Verkehrsgesellschaft mbH"
            }
        ]
    },
    {
        "stop_id": 9261,
        "stop_name": "Lindlar Vellingen Br\u00fccke",
        "stop_lat": 50.989732,
        "stop_lon": 7.321371,
        "routes": [
            {
                "route_id": 1100398,
                "shape_id": 2459,
                "start_stop_name": "Lindlar Vo\u00dfbrucher Str.",
                "end_stop_name": "Lindlar Schulzentrum",
                "agency_name": "OVAG Oberbergische Verkehrsgesellschaft mbH"
            }
        ]
    },
    {
        "stop_id": 9674,
        "stop_name": "Bad M\u00fcnstereifel Wald Gewerbegebiet",
        "stop_lat": 50.540585,
        "stop_lon": 6.883089,
        "routes": [
            {
                "route_id": 1200741,
                "shape_id": 3156,
                "start_stop_name": "Rheinbach Bf",
                "end_stop_name": "Rheinbach Wilhelmsplatz",
                "agency_name": "RVK Regionalverkehr K\u00f6ln GmbH NL Meckenheim"
            }
        ]
    },
    {
        "stop_id": 9716,
        "stop_name": "Bonn Gerhart-Hauptmann-Str.",
        "stop_lat": 50.735969,
        "stop_lon": 7.06063,
        "routes": [
            {
                "route_id": 600633,
                "shape_id": 3124,
                "start_stop_name": "Bonn Gerhart-Hauptmann-Str.",
                "end_stop_name": "Bonn Endenich Nord Bf",
                "agency_name": "SWB Stadtwerke Bonn Verkehrs GmbH"
            }
        ]
    },
    {
        "stop_id": 9779,
        "stop_name": "Bonn Am Dickobskreuz",
        "stop_lat": 50.737108,
        "stop_lon": 7.072725,
        "routes": [
            {
                "route_id": 600633,
                "shape_id": 3157,
                "start_stop_name": "Bonn Beuel Bf",
                "end_stop_name": "Bonn Beuel Hallenbad",
                "agency_name": "SWB Stadtwerke Bonn Verkehrs GmbH"
            }
        ]
    },
    {
        "stop_id": 9,
        "stop_name": "K\u00f6ln Breslauer Platz/Hbf",
        "stop_lat": 50.943657,
        "stop_lon": 6.959362,
        "routes": [
            {
                "route_id": 100124,
                "shape_id": 3205,
                "start_stop_name": "K\u00f6ln Breslauer Platz/Hbf",
                "end_stop_name": "K\u00f6ln Amsterdamer Str./G\u00fcrtel",
                "agency_name": "KVB K\u00f6lner Verkehrs-Betriebe AG"
            }
        ]
    },
    {
        "stop_id": 33,
        "stop_name": "K\u00f6ln Gewerbegebiet Feldkassel",
        "stop_lat": 51.039853,
        "stop_lon": 6.915267,
        "routes": [
            {
                "route_id": 100124,
                "shape_id": 3205,
                "start_stop_name": "K\u00f6ln Breslauer Platz/Hbf",
                "end_stop_name": "K\u00f6ln Amsterdamer Str./G\u00fcrtel",
                "agency_name": "KVB K\u00f6lner Verkehrs-Betriebe AG"
            }
        ]
    },
    {
        "stop_id": 263,
        "stop_name": "K\u00f6ln Alter Deutzer Postweg",
        "stop_lat": 50.9191,
        "stop_lon": 7.04993,
        "routes": [
            {
                "route_id": 100191,
                "shape_id": 1882,
                "start_stop_name": "K\u00f6ln Bertha-Benz-Karree",
                "end_stop_name": "K\u00f6ln Hans-Offermann-Str.",
                "agency_name": "KVB K\u00f6lner Verkehrs-Betriebe AG"
            }
        ]
    },
    {
        "stop_id": 317,
        "stop_name": "K\u00f6ln Amsterdamer Str./G\u00fcrtel",
        "stop_lat": 50.97084,
        "stop_lon": 6.969106,
        "routes": [
            {
                "route_id": 100124,
                "shape_id": 3205,
                "start_stop_name": "K\u00f6ln Breslauer Platz/Hbf",
                "end_stop_name": "K\u00f6ln Amsterdamer Str./G\u00fcrtel",
                "agency_name": "KVB K\u00f6lner Verkehrs-Betriebe AG"
            }
        ]
    },
    {
        "stop_id": 321,
        "stop_name": "K\u00f6ln Kleingartenanlage Ostheim",
        "stop_lat": 50.922052,
        "stop_lon": 7.034409,
        "routes": [
            {
                "route_id": 100191,
                "shape_id": 1882,
                "start_stop_name": "K\u00f6ln Bertha-Benz-Karree",
                "end_stop_name": "K\u00f6ln Hans-Offermann-Str.",
                "agency_name": "KVB K\u00f6lner Verkehrs-Betriebe AG"
            }
        ]
    },
    {
        "stop_id": 367,
        "stop_name": "K\u00f6ln Geestem\u00fcnder Str.",
        "stop_lat": 51.001877,
        "stop_lon": 6.955307,
        "routes": [
            {
                "route_id": 100124,
                "shape_id": 3205,
                "start_stop_name": "K\u00f6ln Breslauer Platz/Hbf",
                "end_stop_name": "K\u00f6ln Amsterdamer Str./G\u00fcrtel",
                "agency_name": "KVB K\u00f6lner Verkehrs-Betriebe AG"
            }
        ]
    },
    {
        "stop_id": 412,
        "stop_name": "K\u00f6ln Oranjehofstr.",
        "stop_lat": 51.02543,
        "stop_lon": 6.939556,
        "routes": [
            {
                "route_id": 100124,
                "shape_id": 3205,
                "start_stop_name": "K\u00f6ln Breslauer Platz/Hbf",
                "end_stop_name": "K\u00f6ln Amsterdamer Str./G\u00fcrtel",
                "agency_name": "KVB K\u00f6lner Verkehrs-Betriebe AG"
            }
        ]
    },
    {
        "stop_id": 413,
        "stop_name": "K\u00f6ln Rheinlandstr.",
        "stop_lat": 51.026769,
        "stop_lon": 6.928351,
        "routes": [
            {
                "route_id": 100124,
                "shape_id": 3205,
                "start_stop_name": "K\u00f6ln Breslauer Platz/Hbf",
                "end_stop_name": "K\u00f6ln Amsterdamer Str./G\u00fcrtel",
                "agency_name": "KVB K\u00f6lner Verkehrs-Betriebe AG"
            }
        ]
    },
    {
        "stop_id": 414,
        "stop_name": "K\u00f6ln Edsel-Ford-Str.",
        "stop_lat": 51.030337,
        "stop_lon": 6.922849,
        "routes": [
            {
                "route_id": 100124,
                "shape_id": 3205,
                "start_stop_name": "K\u00f6ln Breslauer Platz/Hbf",
                "end_stop_name": "K\u00f6ln Amsterdamer Str./G\u00fcrtel",
                "agency_name": "KVB K\u00f6lner Verkehrs-Betriebe AG"
            }
        ]
    },
    {
        "stop_id": 415,
        "stop_name": "K\u00f6ln Robert-Bosch-Str.",
        "stop_lat": 51.031358,
        "stop_lon": 6.920973,
        "routes": [
            {
                "route_id": 100124,
                "shape_id": 3205,
                "start_stop_name": "K\u00f6ln Breslauer Platz/Hbf",
                "end_stop_name": "K\u00f6ln Amsterdamer Str./G\u00fcrtel",
                "agency_name": "KVB K\u00f6lner Verkehrs-Betriebe AG"
            }
        ]
    },
    {
        "stop_id": 417,
        "stop_name": "K\u00f6ln Merkenich",
        "stop_lat": 51.028276,
        "stop_lon": 6.947881,
        "routes": [
            {
                "route_id": 100124,
                "shape_id": 3205,
                "start_stop_name": "K\u00f6ln Breslauer Platz/Hbf",
                "end_stop_name": "K\u00f6ln Amsterdamer Str./G\u00fcrtel",
                "agency_name": "KVB K\u00f6lner Verkehrs-Betriebe AG"
            }
        ]
    },
    {
        "stop_id": 533,
        "stop_name": "K\u00f6ln Ostheim",
        "stop_lat": 50.929228,
        "stop_lon": 7.041239,
        "routes": [
            {
                "route_id": 100191,
                "shape_id": 1882,
                "start_stop_name": "K\u00f6ln Bertha-Benz-Karree",
                "end_stop_name": "K\u00f6ln Hans-Offermann-Str.",
                "agency_name": "KVB K\u00f6lner Verkehrs-Betriebe AG"
            }
        ]
    },
    {
        "stop_id": 536,
        "stop_name": "K\u00f6ln Saarbr\u00fccker Str.",
        "stop_lat": 50.924753,
        "stop_lon": 7.045136,
        "routes": [
            {
                "route_id": 100191,
                "shape_id": 1882,
                "start_stop_name": "K\u00f6ln Bertha-Benz-Karree",
                "end_stop_name": "K\u00f6ln Hans-Offermann-Str.",
                "agency_name": "KVB K\u00f6lner Verkehrs-Betriebe AG"
            }
        ]
    },
    {
        "stop_id": 855,
        "stop_name": "K\u00f6ln Feldkasseler Weg",
        "stop_lat": 51.034785,
        "stop_lon": 6.923037,
        "routes": [
            {
                "route_id": 100124,
                "shape_id": 3205,
                "start_stop_name": "K\u00f6ln Breslauer Platz/Hbf",
                "end_stop_name": "K\u00f6ln Amsterdamer Str./G\u00fcrtel",
                "agency_name": "KVB K\u00f6lner Verkehrs-Betriebe AG"
            }
        ]
    },
    {
        "stop_id": 929,
        "stop_name": "K\u00f6ln Oskar-Schindler-Stra\u00dfe",
        "stop_lat": 51.032739,
        "stop_lon": 6.920287,
        "routes": [
            {
                "route_id": 100124,
                "shape_id": 3205,
                "start_stop_name": "K\u00f6ln Breslauer Platz/Hbf",
                "end_stop_name": "K\u00f6ln Amsterdamer Str./G\u00fcrtel",
                "agency_name": "KVB K\u00f6lner Verkehrs-Betriebe AG"
            }
        ]
    },
    {
        "stop_id": 937,
        "stop_name": "K\u00f6ln Lina-Bommer-Weg",
        "stop_lat": 50.918111,
        "stop_lon": 7.048926,
        "routes": [
            {
                "route_id": 100191,
                "shape_id": 1882,
                "start_stop_name": "K\u00f6ln Bertha-Benz-Karree",
                "end_stop_name": "K\u00f6ln Hans-Offermann-Str.",
                "agency_name": "KVB K\u00f6lner Verkehrs-Betriebe AG"
            }
        ]
    },
    {
        "stop_id": 938,
        "stop_name": "K\u00f6ln Hans-Offermann-Str.",
        "stop_lat": 50.92468,
        "stop_lon": 7.033073,
        "routes": [
            {
                "route_id": 100191,
                "shape_id": 1882,
                "start_stop_name": "K\u00f6ln Bertha-Benz-Karree",
                "end_stop_name": "K\u00f6ln Hans-Offermann-Str.",
                "agency_name": "KVB K\u00f6lner Verkehrs-Betriebe AG"
            }
        ]
    },
    {
        "stop_id": 939,
        "stop_name": "K\u00f6ln Bertha-Benz-Karree",
        "stop_lat": 50.925824,
        "stop_lon": 7.035886,
        "routes": [
            {
                "route_id": 100191,
                "shape_id": 1882,
                "start_stop_name": "K\u00f6ln Bertha-Benz-Karree",
                "end_stop_name": "K\u00f6ln Hans-Offermann-Str.",
                "agency_name": "KVB K\u00f6lner Verkehrs-Betriebe AG"
            }
        ]
    },
    {
        "stop_id": 1289,
        "stop_name": "Leverkusen Rathaus-Galerie",
        "stop_lat": 51.033744,
        "stop_lon": 6.988695,
        "routes": [
            {
                "route_id": 300020,
                "shape_id": 2,
                "start_stop_name": "Leverkusen Quettinger Str.",
                "end_stop_name": "Leverkusen Jakobistr.",
                "agency_name": "wupsi wupsi GmbH"
            }
        ]
    },
    {
        "stop_id": 1367,
        "stop_name": "Troisdorf H\u00e4ndelstr.",
        "stop_lat": 50.809223,
        "stop_lon": 7.105349,
        "routes": [
            {
                "route_id": 800503,
                "shape_id": 2473,
                "start_stop_name": "Siegburg Bf",
                "end_stop_name": "Siegburg Rhein-Sieg-Forum",
                "agency_name": "RSVG Rhein-Sieg-Verkehrsgesellschaft mbH"
            }
        ]
    },
    {
        "stop_id": 1811,
        "stop_name": "Siegburg Bf",
        "stop_lat": 50.793908,
        "stop_lon": 7.203023,
        "routes": [
            {
                "route_id": 800503,
                "shape_id": 2473,
                "start_stop_name": "Siegburg Bf",
                "end_stop_name": "Siegburg Rhein-Sieg-Forum",
                "agency_name": "RSVG Rhein-Sieg-Verkehrsgesellschaft mbH"
            }
        ]
    },
    {
        "stop_id": 2025,
        "stop_name": "Troisdorf Rathausstr.",
        "stop_lat": 50.799854,
        "stop_lon": 7.125228,
        "routes": [
            {
                "route_id": 800503,
                "shape_id": 2473,
                "start_stop_name": "Siegburg Bf",
                "end_stop_name": "Siegburg Rhein-Sieg-Forum",
                "agency_name": "RSVG Rhein-Sieg-Verkehrsgesellschaft mbH"
            }
        ]
    },
    {
        "stop_id": 2026,
        "stop_name": "Troisdorf Sieglar RSVG",
        "stop_lat": 50.802965,
        "stop_lon": 7.125232,
        "routes": [
            {
                "route_id": 800503,
                "shape_id": 2473,
                "start_stop_name": "Siegburg Bf",
                "end_stop_name": "Siegburg Rhein-Sieg-Forum",
                "agency_name": "RSVG Rhein-Sieg-Verkehrsgesellschaft mbH"
            }
        ]
    },
    {
        "stop_id": 2030,
        "stop_name": "Troisdorf Spich Bf",
        "stop_lat": 50.826724,
        "stop_lon": 7.114918,
        "routes": [
            {
                "route_id": 800503,
                "shape_id": 2473,
                "start_stop_name": "Siegburg Bf",
                "end_stop_name": "Siegburg Rhein-Sieg-Forum",
                "agency_name": "RSVG Rhein-Sieg-Verkehrsgesellschaft mbH"
            }
        ]
    },
    {
        "stop_id": 2031,
        "stop_name": "Troisdorf Kriegsdorfer Str.",
        "stop_lat": 50.825242,
        "stop_lon": 7.114825,
        "routes": [
            {
                "route_id": 800503,
                "shape_id": 2473,
                "start_stop_name": "Siegburg Bf",
                "end_stop_name": "Siegburg Rhein-Sieg-Forum",
                "agency_name": "RSVG Rhein-Sieg-Verkehrsgesellschaft mbH"
            }
        ]
    },
    {
        "stop_id": 2032,
        "stop_name": "Troisdorf L\u00fclsdorfer Str.",
        "stop_lat": 50.830482,
        "stop_lon": 7.114908,
        "routes": [
            {
                "route_id": 800503,
                "shape_id": 2473,
                "start_stop_name": "Siegburg Bf",
                "end_stop_name": "Siegburg Rhein-Sieg-Forum",
                "agency_name": "RSVG Rhein-Sieg-Verkehrsgesellschaft mbH"
            }
        ]
    },
    {
        "stop_id": 2035,
        "stop_name": "Troisdorf Spich Kreissparkasse",
        "stop_lat": 50.827404,
        "stop_lon": 7.119916,
        "routes": [
            {
                "route_id": 800503,
                "shape_id": 2473,
                "start_stop_name": "Siegburg Bf",
                "end_stop_name": "Siegburg Rhein-Sieg-Forum",
                "agency_name": "RSVG Rhein-Sieg-Verkehrsgesellschaft mbH"
            }
        ]
    },
    {
        "stop_id": 2039,
        "stop_name": "Troisdorf Rodderstr.",
        "stop_lat": 50.823275,
        "stop_lon": 7.129553,
        "routes": [
            {
                "route_id": 800503,
                "shape_id": 2473,
                "start_stop_name": "Siegburg Bf",
                "end_stop_name": "Siegburg Rhein-Sieg-Forum",
                "agency_name": "RSVG Rhein-Sieg-Verkehrsgesellschaft mbH"
            }
        ]
    },
    {
        "stop_id": 2040,
        "stop_name": "Troisdorf Kunsthaus Tor 3",
        "stop_lat": 50.820014,
        "stop_lon": 7.14043,
        "routes": [
            {
                "route_id": 800503,
                "shape_id": 2473,
                "start_stop_name": "Siegburg Bf",
                "end_stop_name": "Siegburg Rhein-Sieg-Forum",
                "agency_name": "RSVG Rhein-Sieg-Verkehrsgesellschaft mbH"
            }
        ]
    },
    {
        "stop_id": 2041,
        "stop_name": "Troisdorf Rathaus",
        "stop_lat": 50.817568,
        "stop_lon": 7.148785,
        "routes": [
            {
                "route_id": 800503,
                "shape_id": 2473,
                "start_stop_name": "Siegburg Bf",
                "end_stop_name": "Siegburg Rhein-Sieg-Forum",
                "agency_name": "RSVG Rhein-Sieg-Verkehrsgesellschaft mbH"
            }
        ]
    },
    {
        "stop_id": 2047,
        "stop_name": "Troisdorf Sieglar Krankenhaus",
        "stop_lat": 50.797988,
        "stop_lon": 7.119297,
        "routes": [
            {
                "route_id": 800503,
                "shape_id": 2473,
                "start_stop_name": "Siegburg Bf",
                "end_stop_name": "Siegburg Rhein-Sieg-Forum",
                "agency_name": "RSVG Rhein-Sieg-Verkehrsgesellschaft mbH"
            }
        ]
    },
    {
        "stop_id": 2048,
        "stop_name": "Troisdorf Parkfriedhof",
        "stop_lat": 50.797872,
        "stop_lon": 7.112599,
        "routes": [
            {
                "route_id": 800503,
                "shape_id": 2473,
                "start_stop_name": "Siegburg Bf",
                "end_stop_name": "Siegburg Rhein-Sieg-Forum",
                "agency_name": "RSVG Rhein-Sieg-Verkehrsgesellschaft mbH"
            }
        ]
    },
    {
        "stop_id": 2051,
        "stop_name": "Troisdorf Offenbachstr.",
        "stop_lat": 50.806669,
        "stop_lon": 7.103572,
        "routes": [
            {
                "route_id": 800503,
                "shape_id": 2473,
                "start_stop_name": "Siegburg Bf",
                "end_stop_name": "Siegburg Rhein-Sieg-Forum",
                "agency_name": "RSVG Rhein-Sieg-Verkehrsgesellschaft mbH"
            }
        ]
    },
    {
        "stop_id": 2052,
        "stop_name": "Troisdorf Freizeitpark Haus Rott",
        "stop_lat": 50.8133,
        "stop_lon": 7.108596,
        "routes": [
            {
                "route_id": 800503,
                "shape_id": 2473,
                "start_stop_name": "Siegburg Bf",
                "end_stop_name": "Siegburg Rhein-Sieg-Forum",
                "agency_name": "RSVG Rhein-Sieg-Verkehrsgesellschaft mbH"
            }
        ]
    },
    {
        "stop_id": 2071,
        "stop_name": "Troisdorf Bf",
        "stop_lat": 50.813915,
        "stop_lon": 7.150895,
        "routes": [
            {
                "route_id": 800503,
                "shape_id": 2473,
                "start_stop_name": "Siegburg Bf",
                "end_stop_name": "Siegburg Rhein-Sieg-Forum",
                "agency_name": "RSVG Rhein-Sieg-Verkehrsgesellschaft mbH"
            }
        ]
    },
    {
        "stop_id": 2073,
        "stop_name": "Troisdorf Wilhelmstr.",
        "stop_lat": 50.815809,
        "stop_lon": 7.154815,
        "routes": [
            {
                "route_id": 800503,
                "shape_id": 2473,
                "start_stop_name": "Siegburg Bf",
                "end_stop_name": "Siegburg Rhein-Sieg-Forum",
                "agency_name": "RSVG Rhein-Sieg-Verkehrsgesellschaft mbH"
            }
        ]
    },
    {
        "stop_id": 2076,
        "stop_name": "Troisdorf Ursulaplatz",
        "stop_lat": 50.813904,
        "stop_lon": 7.163821,
        "routes": [
            {
                "route_id": 800503,
                "shape_id": 2473,
                "start_stop_name": "Siegburg Bf",
                "end_stop_name": "Siegburg Rhein-Sieg-Forum",
                "agency_name": "RSVG Rhein-Sieg-Verkehrsgesellschaft mbH"
            }
        ]
    },
    {
        "stop_id": 2078,
        "stop_name": "Troisdorf Elsenplatz",
        "stop_lat": 50.814175,
        "stop_lon": 7.171759,
        "routes": [
            {
                "route_id": 800503,
                "shape_id": 2473,
                "start_stop_name": "Siegburg Bf",
                "end_stop_name": "Siegburg Rhein-Sieg-Forum",
                "agency_name": "RSVG Rhein-Sieg-Verkehrsgesellschaft mbH"
            }
        ]
    },
    {
        "stop_id": 2083,
        "stop_name": "Troisdorf Altenforst",
        "stop_lat": 50.814289,
        "stop_lon": 7.176445,
        "routes": [
            {
                "route_id": 800503,
                "shape_id": 2473,
                "start_stop_name": "Siegburg Bf",
                "end_stop_name": "Siegburg Rhein-Sieg-Forum",
                "agency_name": "RSVG Rhein-Sieg-Verkehrsgesellschaft mbH"
            }
        ]
    },
    {
        "stop_id": 2098,
        "stop_name": "Troisdorf Aggerbr\u00fccke",
        "stop_lat": 50.812709,
        "stop_lon": 7.18157,
        "routes": [
            {
                "route_id": 800503,
                "shape_id": 2473,
                "start_stop_name": "Siegburg Bf",
                "end_stop_name": "Siegburg Rhein-Sieg-Forum",
                "agency_name": "RSVG Rhein-Sieg-Verkehrsgesellschaft mbH"
            }
        ]
    },
    {
        "stop_id": 2099,
        "stop_name": "Siegburg Br\u00fcckberg",
        "stop_lat": 50.810134,
        "stop_lon": 7.189989,
        "routes": [
            {
                "route_id": 800503,
                "shape_id": 2473,
                "start_stop_name": "Siegburg Bf",
                "end_stop_name": "Siegburg Rhein-Sieg-Forum",
                "agency_name": "RSVG Rhein-Sieg-Verkehrsgesellschaft mbH"
            }
        ]
    },
    {
        "stop_id": 2100,
        "stop_name": "Siegburg Ernststr.",
        "stop_lat": 50.805519,
        "stop_lon": 7.199037,
        "routes": [
            {
                "route_id": 800503,
                "shape_id": 2473,
                "start_stop_name": "Siegburg Bf",
                "end_stop_name": "Siegburg Rhein-Sieg-Forum",
                "agency_name": "RSVG Rhein-Sieg-Verkehrsgesellschaft mbH"
            }
        ]
    },
    {
        "stop_id": 2101,
        "stop_name": "Siegburg Waldstr.",
        "stop_lat": 50.804151,
        "stop_lon": 7.20269,
        "routes": [
            {
                "route_id": 800503,
                "shape_id": 2473,
                "start_stop_name": "Siegburg Bf",
                "end_stop_name": "Siegburg Rhein-Sieg-Forum",
                "agency_name": "RSVG Rhein-Sieg-Verkehrsgesellschaft mbH"
            }
        ]
    },
    {
        "stop_id": 2102,
        "stop_name": "Siegburg Kaiserstr.",
        "stop_lat": 50.801683,
        "stop_lon": 7.205748,
        "routes": [
            {
                "route_id": 800503,
                "shape_id": 2473,
                "start_stop_name": "Siegburg Bf",
                "end_stop_name": "Siegburg Rhein-Sieg-Forum",
                "agency_name": "RSVG Rhein-Sieg-Verkehrsgesellschaft mbH"
            }
        ]
    },
    {
        "stop_id": 2103,
        "stop_name": "Siegburg Rhein-Sieg-Forum",
        "stop_lat": 50.796896,
        "stop_lon": 7.202745,
        "routes": [
            {
                "route_id": 800503,
                "shape_id": 2473,
                "start_stop_name": "Siegburg Bf",
                "end_stop_name": "Siegburg Rhein-Sieg-Forum",
                "agency_name": "RSVG Rhein-Sieg-Verkehrsgesellschaft mbH"
            }
        ]
    },
    {
        "stop_id": 2650,
        "stop_name": "Siegburg Kaserne",
        "stop_lat": 50.807305,
        "stop_lon": 7.195876,
        "routes": [
            {
                "route_id": 800503,
                "shape_id": 2473,
                "start_stop_name": "Siegburg Bf",
                "end_stop_name": "Siegburg Rhein-Sieg-Forum",
                "agency_name": "RSVG Rhein-Sieg-Verkehrsgesellschaft mbH"
            }
        ]
    },
    {
        "stop_id": 2664,
        "stop_name": "Troisdorf Kuttgasse",
        "stop_lat": 50.811571,
        "stop_lon": 7.158839,
        "routes": [
            {
                "route_id": 800503,
                "shape_id": 2473,
                "start_stop_name": "Siegburg Bf",
                "end_stop_name": "Siegburg Rhein-Sieg-Forum",
                "agency_name": "RSVG Rhein-Sieg-Verkehrsgesellschaft mbH"
            }
        ]
    },
    {
        "stop_id": 2666,
        "stop_name": "Troisdorf Spich Grundschule",
        "stop_lat": 50.822448,
        "stop_lon": 7.114589,
        "routes": [
            {
                "route_id": 800503,
                "shape_id": 2473,
                "start_stop_name": "Siegburg Bf",
                "end_stop_name": "Siegburg Rhein-Sieg-Forum",
                "agency_name": "RSVG Rhein-Sieg-Verkehrsgesellschaft mbH"
            }
        ]
    },
    {
        "stop_id": 3039,
        "stop_name": "Leverkusen Quettinger Str.",
        "stop_lat": 51.059354,
        "stop_lon": 7.01901,
        "routes": [
            {
                "route_id": 300020,
                "shape_id": 2,
                "start_stop_name": "Leverkusen Quettinger Str.",
                "end_stop_name": "Leverkusen Jakobistr.",
                "agency_name": "wupsi wupsi GmbH"
            }
        ]
    },
    {
        "stop_id": 3040,
        "stop_name": "Leverkusen Jakobistr.",
        "stop_lat": 51.061134,
        "stop_lon": 7.028207,
        "routes": [
            {
                "route_id": 300020,
                "shape_id": 2,
                "start_stop_name": "Leverkusen Quettinger Str.",
                "end_stop_name": "Leverkusen Jakobistr.",
                "agency_name": "wupsi wupsi GmbH"
            }
        ]
    },
    {
        "stop_id": 3041,
        "stop_name": "Leverkusen Holzer Weg",
        "stop_lat": 51.062561,
        "stop_lon": 7.033588,
        "routes": [
            {
                "route_id": 300020,
                "shape_id": 2,
                "start_stop_name": "Leverkusen Quettinger Str.",
                "end_stop_name": "Leverkusen Jakobistr.",
                "agency_name": "wupsi wupsi GmbH"
            }
        ]
    },
    {
        "stop_id": 3042,
        "stop_name": "Leverkusen Feldsiefer Weg",
        "stop_lat": 51.063411,
        "stop_lon": 7.040154,
        "routes": [
            {
                "route_id": 300020,
                "shape_id": 2,
                "start_stop_name": "Leverkusen Quettinger Str.",
                "end_stop_name": "Leverkusen Jakobistr.",
                "agency_name": "wupsi wupsi GmbH"
            }
        ]
    },
    {
        "stop_id": 3043,
        "stop_name": "Leverkusen In Holzhausen",
        "stop_lat": 51.063777,
        "stop_lon": 7.044399,
        "routes": [
            {
                "route_id": 300020,
                "shape_id": 2,
                "start_stop_name": "Leverkusen Quettinger Str.",
                "end_stop_name": "Leverkusen Jakobistr.",
                "agency_name": "wupsi wupsi GmbH"
            }
        ]
    },
    {
        "stop_id": 3044,
        "stop_name": "Leverkusen Leineweberstr.",
        "stop_lat": 51.064417,
        "stop_lon": 7.050291,
        "routes": [
            {
                "route_id": 300020,
                "shape_id": 2,
                "start_stop_name": "Leverkusen Quettinger Str.",
                "end_stop_name": "Leverkusen Jakobistr.",
                "agency_name": "wupsi wupsi GmbH"
            }
        ]
    },
    {
        "stop_id": 3045,
        "stop_name": "Leverkusen L\u00fctzenkirchen Mitte",
        "stop_lat": 51.065274,
        "stop_lon": 7.055846,
        "routes": [
            {
                "route_id": 300020,
                "shape_id": 2,
                "start_stop_name": "Leverkusen Quettinger Str.",
                "end_stop_name": "Leverkusen Jakobistr.",
                "agency_name": "wupsi wupsi GmbH"
            }
        ]
    },
    {
        "stop_id": 3054,
        "stop_name": "Leverkusen Forellental",
        "stop_lat": 51.073036,
        "stop_lon": 7.062358,
        "routes": [
            {
                "route_id": 300020,
                "shape_id": 2,
                "start_stop_name": "Leverkusen Quettinger Str.",
                "end_stop_name": "Leverkusen Jakobistr.",
                "agency_name": "wupsi wupsi GmbH"
            }
        ]
    },
    {
        "stop_id": 3055,
        "stop_name": "Leverkusen Sch\u00f6ne Aussicht",
        "stop_lat": 51.072853,
        "stop_lon": 7.056718,
        "routes": [
            {
                "route_id": 300020,
                "shape_id": 2,
                "start_stop_name": "Leverkusen Quettinger Str.",
                "end_stop_name": "Leverkusen Jakobistr.",
                "agency_name": "wupsi wupsi GmbH"
            }
        ]
    },
    {
        "stop_id": 3056,
        "stop_name": "Leverkusen Kinderhausen",
        "stop_lat": 51.068735,
        "stop_lon": 7.057851,
        "routes": [
            {
                "route_id": 300020,
                "shape_id": 2,
                "start_stop_name": "Leverkusen Quettinger Str.",
                "end_stop_name": "Leverkusen Jakobistr.",
                "agency_name": "wupsi wupsi GmbH"
            }
        ]
    },
    {
        "stop_id": 4969,
        "stop_name": "Siegburg Volkshochschule",
        "stop_lat": 50.801284,
        "stop_lon": 7.206078,
        "routes": [
            {
                "route_id": 800503,
                "shape_id": 2473,
                "start_stop_name": "Siegburg Bf",
                "end_stop_name": "Siegburg Rhein-Sieg-Forum",
                "agency_name": "RSVG Rhein-Sieg-Verkehrsgesellschaft mbH"
            }
        ]
    },
    {
        "stop_id": 5228,
        "stop_name": "Leverkusen Mitte Bf",
        "stop_lat": 51.031508,
        "stop_lon": 6.991655,
        "routes": [
            {
                "route_id": 300020,
                "shape_id": 2,
                "start_stop_name": "Leverkusen Quettinger Str.",
                "end_stop_name": "Leverkusen Jakobistr.",
                "agency_name": "wupsi wupsi GmbH"
            }
        ]
    },
    {
        "stop_id": 8758,
        "stop_name": "Siegburg Zum Hohen Ufer",
        "stop_lat": 50.800531,
        "stop_lon": 7.202441,
        "routes": [
            {
                "route_id": 800503,
                "shape_id": 2473,
                "start_stop_name": "Siegburg Bf",
                "end_stop_name": "Siegburg Rhein-Sieg-Forum",
                "agency_name": "RSVG Rhein-Sieg-Verkehrsgesellschaft mbH"
            }
        ]
    },
    {
        "stop_id": 8763,
        "stop_name": "Troisdorf Akazienweg",
        "stop_lat": 50.804007,
        "stop_lon": 7.106475,
        "routes": [
            {
                "route_id": 800503,
                "shape_id": 2473,
                "start_stop_name": "Siegburg Bf",
                "end_stop_name": "Siegburg Rhein-Sieg-Forum",
                "agency_name": "RSVG Rhein-Sieg-Verkehrsgesellschaft mbH"
            }
        ]
    },
    {
        "stop_id": 8764,
        "stop_name": "Troisdorf Junkersring Abzw.",
        "stop_lat": 50.816007,
        "stop_lon": 7.109426,
        "routes": [
            {
                "route_id": 800503,
                "shape_id": 2473,
                "start_stop_name": "Siegburg Bf",
                "end_stop_name": "Siegburg Rhein-Sieg-Forum",
                "agency_name": "RSVG Rhein-Sieg-Verkehrsgesellschaft mbH"
            }
        ]
    },
    {
        "stop_id": 8935,
        "stop_name": "Leverkusen In der Dasladen",
        "stop_lat": 51.063341,
        "stop_lon": 7.036829,
        "routes": [
            {
                "route_id": 300020,
                "shape_id": 2,
                "start_stop_name": "Leverkusen Quettinger Str.",
                "end_stop_name": "Leverkusen Jakobistr.",
                "agency_name": "wupsi wupsi GmbH"
            }
        ]
    },
    {
        "stop_id": 8947,
        "stop_name": "Troisdorf Asselbachstr.",
        "stop_lat": 50.825391,
        "stop_lon": 7.124579,
        "routes": [
            {
                "route_id": 800503,
                "shape_id": 2473,
                "start_stop_name": "Siegburg Bf",
                "end_stop_name": "Siegburg Rhein-Sieg-Forum",
                "agency_name": "RSVG Rhein-Sieg-Verkehrsgesellschaft mbH"
            }
        ]
    },
    {
        "stop_id": 595,
        "stop_name": "K\u00f6ln Dellbr\u00fcck Hauptstr.",
        "stop_lat": 50.974805,
        "stop_lon": 7.074822,
        "routes": [
            {
                "route_id": 300436,
                "shape_id": 25,
                "start_stop_name": "K\u00f6ln Dellbr\u00fcck S-Bahn",
                "end_stop_name": "K\u00f6ln Von-Quadt-Str.",
                "agency_name": "wupsi wupsi GmbH"
            }
        ]
    },
    {
        "stop_id": 601,
        "stop_name": "K\u00f6ln Von-Quadt-Str.",
        "stop_lat": 50.976741,
        "stop_lon": 7.072474,
        "routes": [
            {
                "route_id": 300436,
                "shape_id": 25,
                "start_stop_name": "K\u00f6ln Dellbr\u00fcck S-Bahn",
                "end_stop_name": "K\u00f6ln Von-Quadt-Str.",
                "agency_name": "wupsi wupsi GmbH"
            }
        ]
    },
    {
        "stop_id": 604,
        "stop_name": "K\u00f6ln Dellbr\u00fcck S-Bahn",
        "stop_lat": 50.981437,
        "stop_lon": 7.070119,
        "routes": [
            {
                "route_id": 300436,
                "shape_id": 25,
                "start_stop_name": "K\u00f6ln Dellbr\u00fcck S-Bahn",
                "end_stop_name": "K\u00f6ln Von-Quadt-Str.",
                "agency_name": "wupsi wupsi GmbH"
            }
        ]
    },
    {
        "stop_id": 741,
        "stop_name": "Wesseling Wesseling",
        "stop_lat": 50.822651,
        "stop_lon": 6.979926,
        "routes": [
            {
                "route_id": 2900723,
                "shape_id": 2474,
                "start_stop_name": "Wesseling Franz-Boss-Str.",
                "end_stop_name": "Wesseling Wilhelm-Busch-Str.",
                "agency_name": "SWW Stadtwerke Wesseling GmbH"
            }
        ]
    },